<?xml version="1.0" encoding="UTF-8"?><kml xmlns="http://earth.google.com/kml/2.0"><Document><name>World Gazetteer: World</name>

<Placemark><name>Shanghai</name><description><![CDATA[<font face="Tahoma">population: 16348947<br>division: China<br>reference: <a href="http://www.world-gazetteer.com/wg.php?men=gpro&amp;des=gamelan&amp;geo=436458147">World Gazetteer</a><br></font>]]></description><styleUrl>#p5m</styleUrl><Point><coordinates>121.47,31.23,0</coordinates></Point></Placemark>

<Placemark><name>Bombay</name><description><![CDATA[<font face="Tahoma">population: 13830884<br>division: India<br>reference: <a href="http://www.world-gazetteer.com/wg.php?men=gpro&amp;des=gamelan&amp;geo=392281282">World Gazetteer</a><br></font>]]></description><styleUrl>#p5m</styleUrl><Point><coordinates>72.82,18.96,0</coordinates></Point></Placemark>

<Placemark><name>Karāchi</name><description><![CDATA[<font face="Tahoma">population: 13205339<br>division: Pakistan<br>reference: <a href="http://www.world-gazetteer.com/wg.php?men=gpro&amp;des=gamelan&amp;geo=413520701">World Gazetteer</a><br></font>]]></description><styleUrl>#p5m</styleUrl><Point><coordinates>67.01,24.86,0</coordinates></Point></Placemark>

<Placemark><name>Buenos Aires</name><description><![CDATA[<font face="Tahoma">population: 13080026<br>division: Argentina<br>reference: <a href="http://www.world-gazetteer.com/wg.php?men=gpro&amp;des=gamelan&amp;geo=199416163">World Gazetteer</a><br></font>]]></description><styleUrl>#p5m</styleUrl><Point><coordinates>-58.37,-34.61,0</coordinates></Point></Placemark>

<Placemark><name>Delhi</name><description><![CDATA[<font face="Tahoma">population: 12565901<br>division: India<br>reference: <a href="http://www.world-gazetteer.com/wg.php?men=gpro&amp;des=gamelan&amp;geo=427237721">World Gazetteer</a><br></font>]]></description><styleUrl>#p5m</styleUrl><Point><coordinates>77.21,28.67,0</coordinates></Point></Placemark>

<Placemark><name>İstanbul</name><description><![CDATA[<font face="Tahoma">population: 12175592<br>division: Turkey<br>reference: <a href="http://www.world-gazetteer.com/wg.php?men=gpro&amp;des=gamelan&amp;geo=471980900">World Gazetteer</a><br></font>]]></description><styleUrl>#p5m</styleUrl><Point><coordinates>29,41.1,0</coordinates></Point></Placemark>

<Placemark><name>Manila</name><description><![CDATA[<font face="Tahoma">population: 11248470<br>division: Philippines<br>reference: <a href="http://www.world-gazetteer.com/wg.php?men=gpro&amp;des=gamelan&amp;geo=376662097">World Gazetteer</a><br></font>]]></description><styleUrl>#p5m</styleUrl><Point><coordinates>120.97,14.62,0</coordinates></Point></Placemark>

<Placemark><name>Dhāka</name><description><![CDATA[<font face="Tahoma">population: 10861172<br>division: Bangladesh<br>reference: <a href="http://www.world-gazetteer.com/wg.php?men=gpro&amp;des=gamelan&amp;geo=409347039">World Gazetteer</a><br></font>]]></description><styleUrl>#p5m</styleUrl><Point><coordinates>90.39,23.7,0</coordinates></Point></Placemark>

<Placemark><name>Moscow</name><description><![CDATA[<font face="Tahoma">population: 10509592<br>division: Russia<br>reference: <a href="http://www.world-gazetteer.com/wg.php?men=gpro&amp;des=gamelan&amp;geo=524721762">World Gazetteer</a><br></font>]]></description><styleUrl>#p5m</styleUrl><Point><coordinates>37.62,55.75,0</coordinates></Point></Placemark>

<Placemark><name>São Paulo</name><description><![CDATA[<font face="Tahoma">population: 10381400<br>division: Brazil<br>reference: <a href="http://www.world-gazetteer.com/wg.php?men=gpro&amp;des=gamelan&amp;geo=239305337">World Gazetteer</a><br></font>]]></description><styleUrl>#p5m</styleUrl><Point><coordinates>-46.63,-23.53,0</coordinates></Point></Placemark>

<Placemark><name>Lagos</name><description><![CDATA[<font face="Tahoma">population: 9968455<br>division: Nigeria<br>reference: <a href="http://www.world-gazetteer.com/wg.php?men=gpro&amp;des=gamelan&amp;geo=347418335">World Gazetteer</a><br></font>]]></description><styleUrl>#p5m</styleUrl><Point><coordinates>3.35,6.5,0</coordinates></Point></Placemark>

<Placemark><name>Sŏul</name><description><![CDATA[<font face="Tahoma">population: 9567665<br>division: Korea (South)<br>reference: <a href="http://www.world-gazetteer.com/wg.php?men=gpro&amp;des=gamelan&amp;geo=459246699">World Gazetteer</a><br></font>]]></description><styleUrl>#p5m</styleUrl><Point><coordinates>126.99,37.56,0</coordinates></Point></Placemark>

<Placemark><name>Kinshasa</name><description><![CDATA[<font face="Tahoma">population: 8900721<br>division: Congo (Dem. Rep.)<br>reference: <a href="http://www.world-gazetteer.com/wg.php?men=gpro&amp;des=gamelan&amp;geo=308503532">World Gazetteer</a><br></font>]]></description><styleUrl>#p5m</styleUrl><Point><coordinates>15.32,-4.31,0</coordinates></Point></Placemark>

<Placemark><name>Tōkyō</name><description><![CDATA[<font face="Tahoma">population: 8762073<br>division: Japan<br>reference: <a href="http://www.world-gazetteer.com/wg.php?men=gpro&amp;des=gamelan&amp;geo=452443977">World Gazetteer</a><br></font>]]></description><styleUrl>#p5m</styleUrl><Point><coordinates>139.77,35.67,0</coordinates></Point></Placemark>

<Placemark><name>Mexico City</name><description><![CDATA[<font face="Tahoma">population: 8560994<br>division: Mexico<br>reference: <a href="http://www.world-gazetteer.com/wg.php?men=gpro&amp;des=gamelan&amp;geo=393956086">World Gazetteer</a><br></font>]]></description><styleUrl>#p5m</styleUrl><Point><coordinates>-99.14,19.43,0</coordinates></Point></Placemark>

<Placemark><name>New York</name><description><![CDATA[<font face="Tahoma">population: 8459026<br>division: United States of America<br>reference: <a href="http://www.world-gazetteer.com/wg.php?men=gpro&amp;des=gamelan&amp;geo=470422606">World Gazetteer</a><br></font>]]></description><styleUrl>#p5m</styleUrl><Point><coordinates>-73.94,40.67,0</coordinates></Point></Placemark>

<Placemark><name>Jakarta</name><description><![CDATA[<font face="Tahoma">population: 8431302<br>division: Indonesia<br>reference: <a href="http://www.world-gazetteer.com/wg.php?men=gpro&amp;des=gamelan&amp;geo=301780683">World Gazetteer</a><br></font>]]></description><styleUrl>#p5m</styleUrl><Point><coordinates>106.83,-6.18,0</coordinates></Point></Placemark>

<Placemark><name>Tehrān</name><description><![CDATA[<font face="Tahoma">population: 8429807<br>division: Iran<br>reference: <a href="http://www.world-gazetteer.com/wg.php?men=gpro&amp;des=gamelan&amp;geo=452435143">World Gazetteer</a><br></font>]]></description><styleUrl>#p5m</styleUrl><Point><coordinates>51.43,35.67,0</coordinates></Point></Placemark>

<Placemark><name>Cairo</name><description><![CDATA[<font face="Tahoma">population: 8105071<br>division: Egypt<br>reference: <a href="http://www.world-gazetteer.com/wg.php?men=gpro&amp;des=gamelan&amp;geo=432237125">World Gazetteer</a><br></font>]]></description><styleUrl>#p5m</styleUrl><Point><coordinates>31.25,30.06,0</coordinates></Point></Placemark>

<Placemark><name>Lima</name><description><![CDATA[<font face="Tahoma">population: 8000111<br>division: Peru<br>reference: <a href="http://www.world-gazetteer.com/wg.php?men=gpro&amp;des=gamelan&amp;geo=280558295">World Gazetteer</a><br></font>]]></description><styleUrl>#p5m</styleUrl><Point><coordinates>-77.05,-12.07,0</coordinates></Point></Placemark>

<Placemark><name>Peking</name><description><![CDATA[<font face="Tahoma">population: 7923530<br>division: China<br>reference: <a href="http://www.world-gazetteer.com/wg.php?men=gpro&amp;des=gamelan&amp;geo=467777640">World Gazetteer</a><br></font>]]></description><styleUrl>#p5m</styleUrl><Point><coordinates>116.4,39.93,0</coordinates></Point></Placemark>

<Placemark><name>London</name><description><![CDATA[<font face="Tahoma">population: 7744942<br>division: United Kingdom<br>reference: <a href="http://www.world-gazetteer.com/wg.php?men=gpro&amp;des=gamelan&amp;geo=509489990">World Gazetteer</a><br></font>]]></description><styleUrl>#p5m</styleUrl><Point><coordinates>-0.1,51.52,0</coordinates></Point></Placemark>

<Placemark><name>Bogotá</name><description><![CDATA[<font face="Tahoma">population: 7342569<br>division: Colombia<br>reference: <a href="http://www.world-gazetteer.com/wg.php?men=gpro&amp;des=gamelan&amp;geo=340678591">World Gazetteer</a><br></font>]]></description><styleUrl>#p5m</styleUrl><Point><coordinates>-74.09,4.63,0</coordinates></Point></Placemark>

<Placemark><name>Lahore</name><description><![CDATA[<font face="Tahoma">population: 7129609<br>division: Pakistan<br>reference: <a href="http://www.world-gazetteer.com/wg.php?men=gpro&amp;des=gamelan&amp;geo=437641435">World Gazetteer</a><br></font>]]></description><styleUrl>#p5m</styleUrl><Point><coordinates>74.35,31.56,0</coordinates></Point></Placemark>

<Placemark><name>Rio de Janeiro</name><description><![CDATA[<font face="Tahoma">population: 6255971<br>division: Brazil<br>reference: <a href="http://www.world-gazetteer.com/wg.php?men=gpro&amp;des=gamelan&amp;geo=241537680">World Gazetteer</a><br></font>]]></description><styleUrl>#p5m</styleUrl><Point><coordinates>-43.2,-22.91,0</coordinates></Point></Placemark>

<Placemark><name>Bangkok</name><description><![CDATA[<font face="Tahoma">population: 5831835<br>division: Thailand<br>reference: <a href="http://www.world-gazetteer.com/wg.php?men=gpro&amp;des=gamelan&amp;geo=373456050">World Gazetteer</a><br></font>]]></description><styleUrl>#p5m</styleUrl><Point><coordinates>100.5,13.73,0</coordinates></Point></Placemark>

<Placemark><name>Singapore</name><description><![CDATA[<font face="Tahoma">population: 5560904<br>division: Singapore<br>reference: <a href="http://www.world-gazetteer.com/wg.php?men=gpro&amp;des=gamelan&amp;geo=328708385">World Gazetteer</a><br></font>]]></description><styleUrl>#p5m</styleUrl><Point><coordinates>103.85,1.3,0</coordinates></Point></Placemark>

<Placemark><name>Bangalore</name><description><![CDATA[<font face="Tahoma">population: 5438065<br>division: India<br>reference: <a href="http://www.world-gazetteer.com/wg.php?men=gpro&amp;des=gamelan&amp;geo=370717756">World Gazetteer</a><br></font>]]></description><styleUrl>#p5m</styleUrl><Point><coordinates>77.56,12.97,0</coordinates></Point></Placemark>

<Placemark><name>Bagdād</name><description><![CDATA[<font face="Tahoma">population: 5402486<br>division: Iraq<br>reference: <a href="http://www.world-gazetteer.com/wg.php?men=gpro&amp;des=gamelan&amp;geo=444010444">World Gazetteer</a><br></font>]]></description><styleUrl>#p5m</styleUrl><Point><coordinates>44.44,33.33,0</coordinates></Point></Placemark>

<Placemark><name>Santiago</name><description><![CDATA[<font face="Tahoma">population: 5196846<br>division: Chile<br>reference: <a href="http://www.world-gazetteer.com/wg.php?men=gpro&amp;des=gamelan&amp;geo=203554936">World Gazetteer</a><br></font>]]></description><styleUrl>#p5m</styleUrl><Point><coordinates>-70.64,-33.46,0</coordinates></Point></Placemark>

<Placemark><name>Ibadan</name><description><![CDATA[<font face="Tahoma">population: 5175223<br>division: Nigeria<br>reference: <a href="http://www.world-gazetteer.com/wg.php?men=gpro&amp;des=gamelan&amp;geo=350586393">World Gazetteer</a><br></font>]]></description><styleUrl>#p5m</styleUrl><Point><coordinates>3.93,7.38,0</coordinates></Point></Placemark>

<Placemark><name>Calcutta</name><description><![CDATA[<font face="Tahoma">population: 5138208<br>division: India<br>reference: <a href="http://www.world-gazetteer.com/wg.php?men=gpro&amp;des=gamelan&amp;geo=405278836">World Gazetteer</a><br></font>]]></description><styleUrl>#p5m</styleUrl><Point><coordinates>88.36,22.57,0</coordinates></Point></Placemark>

<Placemark><name>Toronto</name><description><![CDATA[<font face="Tahoma">population: 5052522<br>division: Canada<br>reference: <a href="http://www.world-gazetteer.com/wg.php?men=gpro&amp;des=gamelan&amp;geo=481150062">World Gazetteer</a><br></font>]]></description><styleUrl>#p5m</styleUrl><Point><coordinates>-79.38,43.65,0</coordinates></Point></Placemark>

<Placemark><name>Rangoon</name><description><![CDATA[<font face="Tahoma">population: 5032190<br>division: Myanmar<br>reference: <a href="http://www.world-gazetteer.com/wg.php?men=gpro&amp;des=gamelan&amp;geo=384471615">World Gazetteer</a><br></font>]]></description><styleUrl>#p5m</styleUrl><Point><coordinates>96.15,16.79,0</coordinates></Point></Placemark>

<Placemark><name>Riyadh</name><description><![CDATA[<font face="Tahoma">population: 4878473<br>division: Saudi Arabia<br>reference: <a href="http://www.world-gazetteer.com/wg.php?men=gpro&amp;des=gamelan&amp;geo=412762677">World Gazetteer</a><br></font>]]></description><styleUrl>#p2m</styleUrl><Point><coordinates>46.77,24.65,0</coordinates></Point></Placemark>

<Placemark><name>Chongqing</name><description><![CDATA[<font face="Tahoma">population: 4757368<br>division: China<br>reference: <a href="http://www.world-gazetteer.com/wg.php?men=gpro&amp;des=gamelan&amp;geo=430480658">World Gazetteer</a><br></font>]]></description><styleUrl>#p2m</styleUrl><Point><coordinates>106.58,29.57,0</coordinates></Point></Placemark>

<Placemark><name>Madras</name><description><![CDATA[<font face="Tahoma">population: 4616639<br>division: India<br>reference: <a href="http://www.world-gazetteer.com/wg.php?men=gpro&amp;des=gamelan&amp;geo=371150027">World Gazetteer</a><br></font>]]></description><styleUrl>#p2m</styleUrl><Point><coordinates>80.27,13.09,0</coordinates></Point></Placemark>

<Placemark><name>Xian</name><description><![CDATA[<font face="Tahoma">population: 4587818<br>division: China<br>reference: <a href="http://www.world-gazetteer.com/wg.php?men=gpro&amp;des=gamelan&amp;geo=447400890">World Gazetteer</a><br></font>]]></description><styleUrl>#p2m</styleUrl><Point><coordinates>108.9,34.27,0</coordinates></Point></Placemark>

<Placemark><name>Saint Petersburg</name><description><![CDATA[<font face="Tahoma">population: 4502991<br>division: Russia<br>reference: <a href="http://www.world-gazetteer.com/wg.php?men=gpro&amp;des=gamelan&amp;geo=539769032">World Gazetteer</a><br></font>]]></description><styleUrl>#p2m</styleUrl><Point><coordinates>30.32,59.93,0</coordinates></Point></Placemark>

<Placemark><name>Alexandria</name><description><![CDATA[<font face="Tahoma">population: 4388219<br>division: Egypt<br>reference: <a href="http://www.world-gazetteer.com/wg.php?men=gpro&amp;des=gamelan&amp;geo=436412995">World Gazetteer</a><br></font>]]></description><styleUrl>#p2m</styleUrl><Point><coordinates>29.95,31.22,0</coordinates></Point></Placemark>

<Placemark><name>Wuhan</name><description><![CDATA[<font face="Tahoma">population: 4343546<br>division: China<br>reference: <a href="http://www.world-gazetteer.com/wg.php?men=gpro&amp;des=gamelan&amp;geo=434117427">World Gazetteer</a><br></font>]]></description><styleUrl>#p2m</styleUrl><Point><coordinates>114.27,30.58,0</coordinates></Point></Placemark>

<Placemark><name>Abidjan</name><description><![CDATA[<font face="Tahoma">population: 4123208<br>division: Ivory Coast<br>reference: <a href="http://www.world-gazetteer.com/wg.php?men=gpro&amp;des=gamelan&amp;geo=343205597">World Gazetteer</a><br></font>]]></description><styleUrl>#p2m</styleUrl><Point><coordinates>-4.03,5.33,0</coordinates></Point></Placemark>

<Placemark><name>Ankara</name><description><![CDATA[<font face="Tahoma">population: 4082184<br>division: Turkey<br>reference: <a href="http://www.world-gazetteer.com/wg.php?men=gpro&amp;des=gamelan&amp;geo=467769285">World Gazetteer</a><br></font>]]></description><styleUrl>#p2m</styleUrl><Point><coordinates>32.85,39.93,0</coordinates></Point></Placemark>

<Placemark><name>Hyderabad</name><description><![CDATA[<font face="Tahoma">population: 4068611<br>division: India<br>reference: <a href="http://www.world-gazetteer.com/wg.php?men=gpro&amp;des=gamelan&amp;geo=386665848">World Gazetteer</a><br></font>]]></description><styleUrl>#p2m</styleUrl><Point><coordinates>78.48,17.4,0</coordinates></Point></Placemark>

<Placemark><name>Ahmadābād</name><description><![CDATA[<font face="Tahoma">population: 3959432<br>division: India<br>reference: <a href="http://www.world-gazetteer.com/wg.php?men=gpro&amp;des=gamelan&amp;geo=406933258">World Gazetteer</a><br></font>]]></description><styleUrl>#p2m</styleUrl><Point><coordinates>72.58,23.03,0</coordinates></Point></Placemark>

<Placemark><name>Chengdu</name><description><![CDATA[<font face="Tahoma">population: 3917204<br>division: China<br>reference: <a href="http://www.world-gazetteer.com/wg.php?men=gpro&amp;des=gamelan&amp;geo=434440407">World Gazetteer</a><br></font>]]></description><styleUrl>#p2m</styleUrl><Point><coordinates>104.07,30.67,0</coordinates></Point></Placemark>

<Placemark><name>Los Angeles</name><description><![CDATA[<font face="Tahoma">population: 3878715<br>division: United States of America<br>reference: <a href="http://www.world-gazetteer.com/wg.php?men=gpro&amp;des=gamelan&amp;geo=446802159">World Gazetteer</a><br></font>]]></description><styleUrl>#p2m</styleUrl><Point><coordinates>-118.41,34.11,0</coordinates></Point></Placemark>

<Placemark><name>Ho Chi Minh City</name><description><![CDATA[<font face="Tahoma">population: 3871723<br>division: Vietnam<br>reference: <a href="http://www.world-gazetteer.com/wg.php?men=gpro&amp;des=gamelan&amp;geo=362836669">World Gazetteer</a><br></font>]]></description><styleUrl>#p2m</styleUrl><Point><coordinates>106.69,10.78,0</coordinates></Point></Placemark>

<Placemark><name>Chāţţagām</name><description><![CDATA[<font face="Tahoma">population: 3867703<br>division: Bangladesh<br>reference: <a href="http://www.world-gazetteer.com/wg.php?men=gpro&amp;des=gamelan&amp;geo=404415181">World Gazetteer</a><br></font>]]></description><styleUrl>#p2m</styleUrl><Point><coordinates>91.81,22.33,0</coordinates></Point></Placemark>

<Placemark><name>Sydney</name><description><![CDATA[<font face="Tahoma">population: 3749902<br>division: Australia<br>reference: <a href="http://www.world-gazetteer.com/wg.php?men=gpro&amp;des=gamelan&amp;geo=202101121">World Gazetteer</a><br></font>]]></description><styleUrl>#p2m</styleUrl><Point><coordinates>151.21,-33.87,0</coordinates></Point></Placemark>

<Placemark><name>Yokohama</name><description><![CDATA[<font face="Tahoma">population: 3704626<br>division: Japan<br>reference: <a href="http://www.world-gazetteer.com/wg.php?men=gpro&amp;des=gamelan&amp;geo=451723962">World Gazetteer</a><br></font>]]></description><styleUrl>#p2m</styleUrl><Point><coordinates>139.62,35.47,0</coordinates></Point></Placemark>

<Placemark><name>Tianjin</name><description><![CDATA[<font face="Tahoma">population: 3649387<br>division: China<br>reference: <a href="http://www.world-gazetteer.com/wg.php?men=gpro&amp;des=gamelan&amp;geo=464897720">World Gazetteer</a><br></font>]]></description><styleUrl>#p2m</styleUrl><Point><coordinates>117.2,39.13,0</coordinates></Point></Placemark>

<Placemark><name>Cape Town</name><description><![CDATA[<font face="Tahoma">population: 3648807<br>division: South Africa<br>reference: <a href="http://www.world-gazetteer.com/wg.php?men=gpro&amp;des=gamelan&amp;geo=201871846">World Gazetteer</a><br></font>]]></description><styleUrl>#p2m</styleUrl><Point><coordinates>18.46,-33.93,0</coordinates></Point></Placemark>

<Placemark><name>Shenyang</name><description><![CDATA[<font face="Tahoma">population: 3559349<br>division: China<br>reference: <a href="http://www.world-gazetteer.com/wg.php?men=gpro&amp;des=gamelan&amp;geo=474510345">World Gazetteer</a><br></font>]]></description><styleUrl>#p2m</styleUrl><Point><coordinates>123.45,41.8,0</coordinates></Point></Placemark>

<Placemark><name>Melbourne</name><description><![CDATA[<font face="Tahoma">population: 3551659<br>division: Australia<br>reference: <a href="http://www.world-gazetteer.com/wg.php?men=gpro&amp;des=gamelan&amp;geo=187916496">World Gazetteer</a><br></font>]]></description><styleUrl>#p2m</styleUrl><Point><coordinates>144.96,-37.81,0</coordinates></Point></Placemark>

<Placemark><name>Durban</name><description><![CDATA[<font face="Tahoma">population: 3512243<br>division: South Africa<br>reference: <a href="http://www.world-gazetteer.com/wg.php?men=gpro&amp;des=gamelan&amp;geo=216489099">World Gazetteer</a><br></font>]]></description><styleUrl>#p2m</styleUrl><Point><coordinates>30.99,-29.87,0</coordinates></Point></Placemark>

<Placemark><name>Berlin</name><description><![CDATA[<font face="Tahoma">population: 3448584<br>division: Germany<br>reference: <a href="http://www.world-gazetteer.com/wg.php?men=gpro&amp;des=gamelan&amp;geo=513091338">World Gazetteer</a><br></font>]]></description><styleUrl>#p2m</styleUrl><Point><coordinates>13.38,52.52,0</coordinates></Point></Placemark>

<Placemark><name>Pune</name><description><![CDATA[<font face="Tahoma">population: 3446330<br>division: India<br>reference: <a href="http://www.world-gazetteer.com/wg.php?men=gpro&amp;des=gamelan&amp;geo=390733384">World Gazetteer</a><br></font>]]></description><styleUrl>#p2m</styleUrl><Point><coordinates>73.84,18.53,0</coordinates></Point></Placemark>

<Placemark><name>Gizeh</name><description><![CDATA[<font face="Tahoma">population: 3438401<br>division: Egypt<br>reference: <a href="http://www.world-gazetteer.com/wg.php?men=gpro&amp;des=gamelan&amp;geo=432057121">World Gazetteer</a><br></font>]]></description><styleUrl>#p2m</styleUrl><Point><coordinates>31.21,30.01,0</coordinates></Point></Placemark>

<Placemark><name>Montreal</name><description><![CDATA[<font face="Tahoma">population: 3430917<br>division: Canada<br>reference: <a href="http://www.world-gazetteer.com/wg.php?men=gpro&amp;des=gamelan&amp;geo=487882643">World Gazetteer</a><br></font>]]></description><styleUrl>#p2m</styleUrl><Point><coordinates>-73.57,45.52,0</coordinates></Point></Placemark>

<Placemark><name>Harbin</name><description><![CDATA[<font face="Tahoma">population: 3405339<br>division: China<br>reference: <a href="http://www.world-gazetteer.com/wg.php?men=gpro&amp;des=gamelan&amp;geo=488730665">World Gazetteer</a><br></font>]]></description><styleUrl>#p2m</styleUrl><Point><coordinates>126.65,45.75,0</coordinates></Point></Placemark>

<Placemark><name>Nanjing</name><description><![CDATA[<font face="Tahoma">population: 3389828<br>division: China<br>reference: <a href="http://www.world-gazetteer.com/wg.php?men=gpro&amp;des=gamelan&amp;geo=439409878">World Gazetteer</a><br></font>]]></description><styleUrl>#p2m</styleUrl><Point><coordinates>118.78,32.05,0</coordinates></Point></Placemark>

<Placemark><name>Sūrat</name><description><![CDATA[<font face="Tahoma">population: 3344135<br>division: India<br>reference: <a href="http://www.world-gazetteer.com/wg.php?men=gpro&amp;des=gamelan&amp;geo=400345282">World Gazetteer</a><br></font>]]></description><styleUrl>#p2m</styleUrl><Point><coordinates>72.82,21.2,0</coordinates></Point></Placemark>

<Placemark><name>Āddīs Ābebā</name><description><![CDATA[<font face="Tahoma">population: 3315108<br>division: Ethiopia<br>reference: <a href="http://www.world-gazetteer.com/wg.php?men=gpro&amp;des=gamelan&amp;geo=356529874">World Gazetteer</a><br></font>]]></description><styleUrl>#p2m</styleUrl><Point><coordinates>38.74,9.03,0</coordinates></Point></Placemark>

<Placemark><name>Pusan</name><description><![CDATA[<font face="Tahoma">population: 3307449<br>division: Korea (South)<br>reference: <a href="http://www.world-gazetteer.com/wg.php?men=gpro&amp;des=gamelan&amp;geo=450426903">World Gazetteer</a><br></font>]]></description><styleUrl>#p2m</styleUrl><Point><coordinates>129.03,35.11,0</coordinates></Point></Placemark>

<Placemark><name>Casablanca</name><description><![CDATA[<font face="Tahoma">population: 3299179<br>division: Morocco<br>reference: <a href="http://www.world-gazetteer.com/wg.php?men=gpro&amp;des=gamelan&amp;geo=444977238">World Gazetteer</a><br></font>]]></description><styleUrl>#p2m</styleUrl><Point><coordinates>-7.62,33.6,0</coordinates></Point></Placemark>

<Placemark><name>Pyŏngyang</name><description><![CDATA[<font face="Tahoma">population: 3270582<br>division: Korea (North)<br>reference: <a href="http://www.world-gazetteer.com/wg.php?men=gpro&amp;des=gamelan&amp;geo=464502575">World Gazetteer</a><br></font>]]></description><styleUrl>#p2m</styleUrl><Point><coordinates>125.75,39.02,0</coordinates></Point></Placemark>

<Placemark><name>Nairobi</name><description><![CDATA[<font face="Tahoma">population: 3246384<br>division: Kenya<br>reference: <a href="http://www.world-gazetteer.com/wg.php?men=gpro&amp;des=gamelan&amp;geo=319377682">World Gazetteer</a><br></font>]]></description><styleUrl>#p2m</styleUrl><Point><coordinates>36.82,-1.29,0</coordinates></Point></Placemark>

<Placemark><name>Jiddah</name><description><![CDATA[<font face="Tahoma">population: 3232834<br>division: Saudi Arabia<br>reference: <a href="http://www.world-gazetteer.com/wg.php?men=gpro&amp;des=gamelan&amp;geo=401421917">World Gazetteer</a><br></font>]]></description><styleUrl>#p2m</styleUrl><Point><coordinates>39.17,21.5,0</coordinates></Point></Placemark>

<Placemark><name>Kānpur</name><description><![CDATA[<font face="Tahoma">population: 3221435<br>division: India<br>reference: <a href="http://www.world-gazetteer.com/wg.php?men=gpro&amp;des=gamelan&amp;geo=419318033">World Gazetteer</a><br></font>]]></description><styleUrl>#p2m</styleUrl><Point><coordinates>80.33,26.47,0</coordinates></Point></Placemark>

<Placemark><name>Dar es Salaam</name><description><![CDATA[<font face="Tahoma">population: 3212040<br>division: Tanzania<br>reference: <a href="http://www.world-gazetteer.com/wg.php?men=gpro&amp;des=gamelan&amp;geo=299469928">World Gazetteer</a><br></font>]]></description><styleUrl>#p2m</styleUrl><Point><coordinates>39.28,-6.82,0</coordinates></Point></Placemark>

<Placemark><name>Jaipur</name><description><![CDATA[<font face="Tahoma">population: 3210570<br>division: India<br>reference: <a href="http://www.world-gazetteer.com/wg.php?men=gpro&amp;des=gamelan&amp;geo=420937580">World Gazetteer</a><br></font>]]></description><styleUrl>#p2m</styleUrl><Point><coordinates>75.8,26.92,0</coordinates></Point></Placemark>

<Placemark><name>Madrid</name><description><![CDATA[<font face="Tahoma">population: 3137083<br>division: Spain<br>reference: <a href="http://www.world-gazetteer.com/wg.php?men=gpro&amp;des=gamelan&amp;geo=469529629">World Gazetteer</a><br></font>]]></description><styleUrl>#p2m</styleUrl><Point><coordinates>-3.71,40.42,0</coordinates></Point></Placemark>

<Placemark><name>Guangzhou</name><description><![CDATA[<font face="Tahoma">population: 3097347<br>division: China<br>reference: <a href="http://www.world-gazetteer.com/wg.php?men=gpro&amp;des=gamelan&amp;geo=407261325">World Gazetteer</a><br></font>]]></description><styleUrl>#p2m</styleUrl><Point><coordinates>113.25,23.12,0</coordinates></Point></Placemark>

<Placemark><name>Salvador</name><description><![CDATA[<font face="Tahoma">population: 2999725<br>division: Brazil<br>reference: <a href="http://www.world-gazetteer.com/wg.php?men=gpro&amp;des=gamelan&amp;geo=277322150">World Gazetteer</a><br></font>]]></description><styleUrl>#p2m</styleUrl><Point><coordinates>-38.5,-12.97,0</coordinates></Point></Placemark>

<Placemark><name>al-Mawşil</name><description><![CDATA[<font face="Tahoma">population: 2882442<br>division: Iraq<br>reference: <a href="http://www.world-gazetteer.com/wg.php?men=gpro&amp;des=gamelan&amp;geo=454846314">World Gazetteer</a><br></font>]]></description><styleUrl>#p2m</styleUrl><Point><coordinates>43.14,36.34,0</coordinates></Point></Placemark>

<Placemark><name>Faisalābād</name><description><![CDATA[<font face="Tahoma">population: 2880675<br>division: Pakistan<br>reference: <a href="http://www.world-gazetteer.com/wg.php?men=gpro&amp;des=gamelan&amp;geo=437101311">World Gazetteer</a><br></font>]]></description><styleUrl>#p2m</styleUrl><Point><coordinates>73.11,31.41,0</coordinates></Point></Placemark>

<Placemark><name>Chicago</name><description><![CDATA[<font face="Tahoma">population: 2878948<br>division: United States of America<br>reference: <a href="http://www.world-gazetteer.com/wg.php?men=gpro&amp;des=gamelan&amp;geo=474633232">World Gazetteer</a><br></font>]]></description><styleUrl>#p2m</styleUrl><Point><coordinates>-87.68,41.84,0</coordinates></Point></Placemark>

<Placemark><name>İzmir</name><description><![CDATA[<font face="Tahoma">population: 2815046<br>division: Turkey<br>reference: <a href="http://www.world-gazetteer.com/wg.php?men=gpro&amp;des=gamelan&amp;geo=462368715">World Gazetteer</a><br></font>]]></description><styleUrl>#p2m</styleUrl><Point><coordinates>27.15,38.43,0</coordinates></Point></Placemark>

<Placemark><name>Changchun</name><description><![CDATA[<font face="Tahoma">population: 2813245<br>division: China<br>reference: <a href="http://www.world-gazetteer.com/wg.php?men=gpro&amp;des=gamelan&amp;geo=481962535">World Gazetteer</a><br></font>]]></description><styleUrl>#p2m</styleUrl><Point><coordinates>125.35,43.87,0</coordinates></Point></Placemark>

<Placemark><name>Taiyuan</name><description><![CDATA[<font face="Tahoma">population: 2809501<br>division: China<br>reference: <a href="http://www.world-gazetteer.com/wg.php?men=gpro&amp;des=gamelan&amp;geo=460361255">World Gazetteer</a><br></font>]]></description><styleUrl>#p2m</styleUrl><Point><coordinates>112.55,37.87,0</coordinates></Point></Placemark>

<Placemark><name>Lakhnau</name><description><![CDATA[<font face="Tahoma">population: 2750447<br>division: India<br>reference: <a href="http://www.world-gazetteer.com/wg.php?men=gpro&amp;des=gamelan&amp;geo=420686092">World Gazetteer</a><br></font>]]></description><styleUrl>#p2m</styleUrl><Point><coordinates>80.92,26.85,0</coordinates></Point></Placemark>

<Placemark><name>Kiev</name><description><![CDATA[<font face="Tahoma">population: 2740312<br>division: Ukraine<br>reference: <a href="http://www.world-gazetteer.com/wg.php?men=gpro&amp;des=gamelan&amp;geo=505569052">World Gazetteer</a><br></font>]]></description><styleUrl>#p2m</styleUrl><Point><coordinates>30.52,50.43,0</coordinates></Point></Placemark>

<Placemark><name>Táiběi</name><description><![CDATA[<font face="Tahoma">population: 2655972<br>division: Taiwan<br>reference: <a href="http://www.world-gazetteer.com/wg.php?men=gpro&amp;des=gamelan&amp;geo=414102145">World Gazetteer</a><br></font>]]></description><styleUrl>#p2m</styleUrl><Point><coordinates>121.45,25.02,0</coordinates></Point></Placemark>

<Placemark><name>Ōsaka</name><description><![CDATA[<font face="Tahoma">population: 2644581<br>division: Japan<br>reference: <a href="http://www.world-gazetteer.com/wg.php?men=gpro&amp;des=gamelan&amp;geo=448879550">World Gazetteer</a><br></font>]]></description><styleUrl>#p2m</styleUrl><Point><coordinates>135.5,34.68,0</coordinates></Point></Placemark>

<Placemark><name>Luanda</name><description><![CDATA[<font face="Tahoma">population: 2644318<br>division: Angola<br>reference: <a href="http://www.world-gazetteer.com/wg.php?men=gpro&amp;des=gamelan&amp;geo=292267324">World Gazetteer</a><br></font>]]></description><styleUrl>#p2m</styleUrl><Point><coordinates>13.24,-8.82,0</coordinates></Point></Placemark>

<Placemark><name>Maracaibo</name><description><![CDATA[<font face="Tahoma">population: 2634251<br>division: Venezuela<br>reference: <a href="http://www.world-gazetteer.com/wg.php?men=gpro&amp;des=gamelan&amp;geo=362638834">World Gazetteer</a><br></font>]]></description><styleUrl>#p2m</styleUrl><Point><coordinates>-71.66,10.73,0</coordinates></Point></Placemark>

<Placemark><name>Dakar</name><description><![CDATA[<font face="Tahoma">population: 2583028<br>division: Senegal<br>reference: <a href="http://www.world-gazetteer.com/wg.php?men=gpro&amp;des=gamelan&amp;geo=377008252">World Gazetteer</a><br></font>]]></description><styleUrl>#p2m</styleUrl><Point><coordinates>-17.48,14.72,0</coordinates></Point></Placemark>

<Placemark><name>Umm Durmān</name><description><![CDATA[<font face="Tahoma">population: 2568590<br>division: Sudan<br>reference: <a href="http://www.world-gazetteer.com/wg.php?men=gpro&amp;des=gamelan&amp;geo=380361248">World Gazetteer</a><br></font>]]></description><styleUrl>#p2m</styleUrl><Point><coordinates>32.48,15.65,0</coordinates></Point></Placemark>

<Placemark><name>Fortaleza</name><description><![CDATA[<font face="Tahoma">population: 2558558<br>division: Brazil<br>reference: <a href="http://www.world-gazetteer.com/wg.php?men=gpro&amp;des=gamelan&amp;geo=310406141">World Gazetteer</a><br></font>]]></description><styleUrl>#p2m</styleUrl><Point><coordinates>-38.59,-3.78,0</coordinates></Point></Placemark>

<Placemark><name>Inchŏn</name><description><![CDATA[<font face="Tahoma">population: 2554528<br>division: Korea (South)<br>reference: <a href="http://www.world-gazetteer.com/wg.php?men=gpro&amp;des=gamelan&amp;geo=458958664">World Gazetteer</a><br></font>]]></description><styleUrl>#p2m</styleUrl><Point><coordinates>126.64,37.48,0</coordinates></Point></Placemark>

<Placemark><name>Santo Domingo</name><description><![CDATA[<font face="Tahoma">population: 2552398<br>division: Dominican Republic<br>reference: <a href="http://www.world-gazetteer.com/wg.php?men=gpro&amp;des=gamelan&amp;geo=390539009">World Gazetteer</a><br></font>]]></description><styleUrl>#p2m</styleUrl><Point><coordinates>-69.91,18.48,0</coordinates></Point></Placemark>

<Placemark><name>Brasília</name><description><![CDATA[<font face="Tahoma">population: 2551909<br>division: Brazil<br>reference: <a href="http://www.world-gazetteer.com/wg.php?men=gpro&amp;des=gamelan&amp;geo=267205209">World Gazetteer</a><br></font>]]></description><styleUrl>#p2m</styleUrl><Point><coordinates>-47.91,-15.78,0</coordinates></Point></Placemark>

<Placemark><name>Belo Horizonte</name><description><![CDATA[<font face="Tahoma">population: 2534455<br>division: Brazil<br>reference: <a href="http://www.world-gazetteer.com/wg.php?men=gpro&amp;des=gamelan&amp;geo=252301606">World Gazetteer</a><br></font>]]></description><styleUrl>#p2m</styleUrl><Point><coordinates>-43.94,-19.92,0</coordinates></Point></Placemark>

<Placemark><name>Mashhad</name><description><![CDATA[<font face="Tahoma">population: 2516467<br>division: Iran<br>reference: <a href="http://www.world-gazetteer.com/wg.php?men=gpro&amp;des=gamelan&amp;geo=454595957">World Gazetteer</a><br></font>]]></description><styleUrl>#p2m</styleUrl><Point><coordinates>59.57,36.27,0</coordinates></Point></Placemark>

<Placemark><name>Rome</name><description><![CDATA[<font face="Tahoma">population: 2473972<br>division: Italy<br>reference: <a href="http://www.world-gazetteer.com/wg.php?men=gpro&amp;des=gamelan&amp;geo=474823250">World Gazetteer</a><br></font>]]></description><styleUrl>#p2m</styleUrl><Point><coordinates>12.5,41.89,0</coordinates></Point></Placemark>

<Placemark><name>Accra</name><description><![CDATA[<font face="Tahoma">population: 2449922<br>division: Ghana<br>reference: <a href="http://www.world-gazetteer.com/wg.php?men=gpro&amp;des=gamelan&amp;geo=344033980">World Gazetteer</a><br></font>]]></description><styleUrl>#p2m</styleUrl><Point><coordinates>-0.2,5.56,0</coordinates></Point></Placemark>

<Placemark><name>Nāgpur</name><description><![CDATA[<font face="Tahoma">population: 2447063<br>division: India<br>reference: <a href="http://www.world-gazetteer.com/wg.php?men=gpro&amp;des=gamelan&amp;geo=400201908">World Gazetteer</a><br></font>]]></description><styleUrl>#p2m</styleUrl><Point><coordinates>79.08,21.16,0</coordinates></Point></Placemark>

<Placemark><name>Khartoum</name><description><![CDATA[<font face="Tahoma">population: 2431323<br>division: Sudan<br>reference: <a href="http://www.world-gazetteer.com/wg.php?men=gpro&amp;des=gamelan&amp;geo=380109252">World Gazetteer</a><br></font>]]></description><styleUrl>#p2m</styleUrl><Point><coordinates>32.52,15.58,0</coordinates></Point></Placemark>

<Placemark><name>Shijiazhuang</name><description><![CDATA[<font face="Tahoma">population: 2415478<br>division: China<br>reference: <a href="http://www.world-gazetteer.com/wg.php?men=gpro&amp;des=gamelan&amp;geo=461009448">World Gazetteer</a><br></font>]]></description><styleUrl>#p2m</styleUrl><Point><coordinates>114.48,38.05,0</coordinates></Point></Placemark>

<Placemark><name>Benin</name><description><![CDATA[<font face="Tahoma">population: 2406697<br>division: Nigeria<br>reference: <a href="http://www.world-gazetteer.com/wg.php?men=gpro&amp;des=gamelan&amp;geo=346842562">World Gazetteer</a><br></font>]]></description><styleUrl>#p2m</styleUrl><Point><coordinates>5.62,6.34,0</coordinates></Point></Placemark>

<Placemark><name>Taegu</name><description><![CDATA[<font face="Tahoma">population: 2403517<br>division: Korea (South)<br>reference: <a href="http://www.world-gazetteer.com/wg.php?men=gpro&amp;des=gamelan&amp;geo=453162860">World Gazetteer</a><br></font>]]></description><styleUrl>#p2m</styleUrl><Point><coordinates>128.6,35.87,0</coordinates></Point></Placemark>

<Placemark><name>Kano</name><description><![CDATA[<font face="Tahoma">population: 2376372<br>division: Nigeria<br>reference: <a href="http://www.world-gazetteer.com/wg.php?men=gpro&amp;des=gamelan&amp;geo=367218852">World Gazetteer</a><br></font>]]></description><styleUrl>#p2m</styleUrl><Point><coordinates>8.52,12,0</coordinates></Point></Placemark>

<Placemark><name>Medellín</name><description><![CDATA[<font face="Tahoma">population: 2352491<br>division: Colombia<br>reference: <a href="http://www.world-gazetteer.com/wg.php?men=gpro&amp;des=gamelan&amp;geo=346654446">World Gazetteer</a><br></font>]]></description><styleUrl>#p2m</styleUrl><Point><coordinates>-75.54,6.29,0</coordinates></Point></Placemark>

<Placemark><name>Surabaya</name><description><![CDATA[<font face="Tahoma">population: 2328055<br>division: Indonesia<br>reference: <a href="http://www.world-gazetteer.com/wg.php?men=gpro&amp;des=gamelan&amp;geo=297965274">World Gazetteer</a><br></font>]]></description><styleUrl>#p2m</styleUrl><Point><coordinates>112.74,-7.24,0</coordinates></Point></Placemark>

<Placemark><name>Kabul</name><description><![CDATA[<font face="Tahoma">population: 2327146<br>division: Afghanistan<br>reference: <a href="http://www.world-gazetteer.com/wg.php?men=gpro&amp;des=gamelan&amp;geo=448332917">World Gazetteer</a><br></font>]]></description><styleUrl>#p2m</styleUrl><Point><coordinates>69.17,34.53,0</coordinates></Point></Placemark>

<Placemark><name>Changsha</name><description><![CDATA[<font face="Tahoma">population: 2323490<br>division: China<br>reference: <a href="http://www.world-gazetteer.com/wg.php?men=gpro&amp;des=gamelan&amp;geo=425549297">World Gazetteer</a><br></font>]]></description><styleUrl>#p2m</styleUrl><Point><coordinates>112.97,28.2,0</coordinates></Point></Placemark>

<Placemark><name>Houston</name><description><![CDATA[<font face="Tahoma">population: 2307883<br>division: United States of America<br>reference: <a href="http://www.world-gazetteer.com/wg.php?men=gpro&amp;des=gamelan&amp;geo=431180461">World Gazetteer</a><br></font>]]></description><styleUrl>#p2m</styleUrl><Point><coordinates>-95.39,29.77,0</coordinates></Point></Placemark>

<Placemark><name>Guayaquil</name><description><![CDATA[<font face="Tahoma">population: 2286302<br>division: Ecuador<br>reference: <a href="http://www.world-gazetteer.com/wg.php?men=gpro&amp;des=gamelan&amp;geo=316054010">World Gazetteer</a><br></font>]]></description><styleUrl>#p2m</styleUrl><Point><coordinates>-79.9,-2.21,0</coordinates></Point></Placemark>

<Placemark><name>Nagoya</name><description><![CDATA[<font face="Tahoma">population: 2262185<br>division: Japan<br>reference: <a href="http://www.world-gazetteer.com/wg.php?men=gpro&amp;des=gamelan&amp;geo=450571691">World Gazetteer</a><br></font>]]></description><styleUrl>#p2m</styleUrl><Point><coordinates>136.91,35.15,0</coordinates></Point></Placemark>

<Placemark><name>Algiers</name><description><![CDATA[<font face="Tahoma">population: 2239613<br>division: Algeria<br>reference: <a href="http://www.world-gazetteer.com/wg.php?men=gpro&amp;des=gamelan&amp;geo=456390304">World Gazetteer</a><br></font>]]></description><styleUrl>#p2m</styleUrl><Point><coordinates>3.04,36.77,0</coordinates></Point></Placemark>

<Placemark><name>Jilin</name><description><![CDATA[<font face="Tahoma">population: 2228535<br>division: China<br>reference: <a href="http://www.world-gazetteer.com/wg.php?men=gpro&amp;des=gamelan&amp;geo=481890655">World Gazetteer</a><br></font>]]></description><styleUrl>#p2m</styleUrl><Point><coordinates>126.55,43.85,0</coordinates></Point></Placemark>

<Placemark><name>Jinan</name><description><![CDATA[<font face="Tahoma">population: 2227937<br>division: China<br>reference: <a href="http://www.world-gazetteer.com/wg.php?men=gpro&amp;des=gamelan&amp;geo=456041700">World Gazetteer</a><br></font>]]></description><styleUrl>#p2m</styleUrl><Point><coordinates>117,36.67,0</coordinates></Point></Placemark>

<Placemark><name>Cali</name><description><![CDATA[<font face="Tahoma">population: 2222724<br>division: Colombia<br>reference: <a href="http://www.world-gazetteer.com/wg.php?men=gpro&amp;des=gamelan&amp;geo=336394348">World Gazetteer</a><br></font>]]></description><styleUrl>#p2m</styleUrl><Point><coordinates>-76.52,3.44,0</coordinates></Point></Placemark>

<Placemark><name>Dalian</name><description><![CDATA[<font face="Tahoma">population: 2195151<br>division: China<br>reference: <a href="http://www.world-gazetteer.com/wg.php?men=gpro&amp;des=gamelan&amp;geo=464142165">World Gazetteer</a><br></font>]]></description><styleUrl>#p2m</styleUrl><Point><coordinates>121.65,38.92,0</coordinates></Point></Placemark>

<Placemark><name>Tashkent</name><description><![CDATA[<font face="Tahoma">population: 2194272<br>division: Uzbekistan<br>reference: <a href="http://www.world-gazetteer.com/wg.php?men=gpro&amp;des=gamelan&amp;geo=472740930">World Gazetteer</a><br></font>]]></description><styleUrl>#p2m</styleUrl><Point><coordinates>69.3,41.31,0</coordinates></Point></Placemark>

<Placemark><name>Paris</name><description><![CDATA[<font face="Tahoma">population: 2187534<br>division: France<br>reference: <a href="http://www.world-gazetteer.com/wg.php?men=gpro&amp;des=gamelan&amp;geo=499914234">World Gazetteer</a><br></font>]]></description><styleUrl>#p2m</styleUrl><Point><coordinates>2.34,48.86,0</coordinates></Point></Placemark>

<Placemark><name>Nanchang</name><description><![CDATA[<font face="Tahoma">population: 2156849<br>division: China<br>reference: <a href="http://www.world-gazetteer.com/wg.php?men=gpro&amp;des=gamelan&amp;geo=427277588">World Gazetteer</a><br></font>]]></description><styleUrl>#p2m</styleUrl><Point><coordinates>115.88,28.68,0</coordinates></Point></Placemark>

<Placemark><name>Douala</name><description><![CDATA[<font face="Tahoma">population: 2131832<br>division: Cameroon<br>reference: <a href="http://www.world-gazetteer.com/wg.php?men=gpro&amp;des=gamelan&amp;geo=338634971">World Gazetteer</a><br></font>]]></description><styleUrl>#p2m</styleUrl><Point><coordinates>9.71,4.06,0</coordinates></Point></Placemark>

<Placemark><name>Havanna</name><description><![CDATA[<font face="Tahoma">population: 2125977<br>division: Cuba<br>reference: <a href="http://www.world-gazetteer.com/wg.php?men=gpro&amp;des=gamelan&amp;geo=407277761">World Gazetteer</a><br></font>]]></description><styleUrl>#p2m</styleUrl><Point><coordinates>-82.39,23.13,0</coordinates></Point></Placemark>

<Placemark><name>Port Harcourt</name><description><![CDATA[<font face="Tahoma">population: 2100711<br>division: Nigeria<br>reference: <a href="http://www.world-gazetteer.com/wg.php?men=gpro&amp;des=gamelan&amp;geo=341334701">World Gazetteer</a><br></font>]]></description><styleUrl>#p2m</styleUrl><Point><coordinates>7.01,4.81,0</coordinates></Point></Placemark>

<Placemark><name>Şan'ā</name><description><![CDATA[<font face="Tahoma">population: 2079158<br>division: Yemen<br>reference: <a href="http://www.world-gazetteer.com/wg.php?men=gpro&amp;des=gamelan&amp;geo=379390421">World Gazetteer</a><br></font>]]></description><styleUrl>#p2m</styleUrl><Point><coordinates>44.21,15.38,0</coordinates></Point></Placemark>

<Placemark><name>Kaduna</name><description><![CDATA[<font face="Tahoma">population: 2061175<br>division: Nigeria<br>reference: <a href="http://www.world-gazetteer.com/wg.php?men=gpro&amp;des=gamelan&amp;geo=361890744">World Gazetteer</a><br></font>]]></description><styleUrl>#p2m</styleUrl><Point><coordinates>7.44,10.52,0</coordinates></Point></Placemark>

<Placemark><name>Johannesburg</name><description><![CDATA[<font face="Tahoma">population: 2058044<br>division: South Africa<br>reference: <a href="http://www.world-gazetteer.com/wg.php?men=gpro&amp;des=gamelan&amp;geo=229736804">World Gazetteer</a><br></font>]]></description><styleUrl>#p2m</styleUrl><Point><coordinates>28.04,-26.19,0</coordinates></Point></Placemark>

<Placemark><name>Vancouver</name><description><![CDATA[<font face="Tahoma">population: 2044298<br>division: Canada<br>reference: <a href="http://www.world-gazetteer.com/wg.php?men=gpro&amp;des=gamelan&amp;geo=501413687">World Gazetteer</a><br></font>]]></description><styleUrl>#p2m</styleUrl><Point><coordinates>-123.13,49.28,0</coordinates></Point></Placemark>

<Placemark><name>Xinyang</name><description><![CDATA[<font face="Tahoma">population: 2031326<br>division: China<br>reference: <a href="http://www.world-gazetteer.com/wg.php?men=gpro&amp;des=gamelan&amp;geo=439697407">World Gazetteer</a><br></font>]]></description><styleUrl>#p2m</styleUrl><Point><coordinates>114.07,32.13,0</coordinates></Point></Placemark>

<Placemark><name>Bayrūt</name><description><![CDATA[<font face="Tahoma">population: 2025123<br>division: Lebanon<br>reference: <a href="http://www.world-gazetteer.com/wg.php?men=gpro&amp;des=gamelan&amp;geo=446025550">World Gazetteer</a><br></font>]]></description><styleUrl>#p2m</styleUrl><Point><coordinates>35.5,33.89,0</coordinates></Point></Placemark>

<Placemark><name>Zhengzhou</name><description><![CDATA[<font face="Tahoma">population: 2014810<br>division: China<br>reference: <a href="http://www.world-gazetteer.com/wg.php?men=gpro&amp;des=gamelan&amp;geo=449129367">World Gazetteer</a><br></font>]]></description><styleUrl>#p2m</styleUrl><Point><coordinates>113.67,34.75,0</coordinates></Point></Placemark>

<Placemark><name>Conakry</name><description><![CDATA[<font face="Tahoma">population: 2007310<br>division: Guinea<br>reference: <a href="http://www.world-gazetteer.com/wg.php?men=gpro&amp;des=gamelan&amp;geo=358396633">World Gazetteer</a><br></font>]]></description><styleUrl>#p2m</styleUrl><Point><coordinates>-13.67,9.55,0</coordinates></Point></Placemark>

<Placemark><name>Ecatepec</name><description><![CDATA[<font face="Tahoma">population: 1997036<br>division: Mexico<br>reference: <a href="http://www.world-gazetteer.com/wg.php?men=gpro&amp;des=gamelan&amp;geo=394568095">World Gazetteer</a><br></font>]]></description><styleUrl>#p1m</styleUrl><Point><coordinates>-99.05,19.6,0</coordinates></Point></Placemark>

<Placemark><name>Rāwalpindi</name><description><![CDATA[<font face="Tahoma">population: 1991656<br>division: Pakistan<br>reference: <a href="http://www.world-gazetteer.com/wg.php?men=gpro&amp;des=gamelan&amp;geo=444985304">World Gazetteer</a><br></font>]]></description><styleUrl>#p1m</styleUrl><Point><coordinates>73.04,33.6,0</coordinates></Point></Placemark>

<Placemark><name>Caracas</name><description><![CDATA[<font face="Tahoma">population: 1966463<br>division: Venezuela<br>reference: <a href="http://www.world-gazetteer.com/wg.php?men=gpro&amp;des=gamelan&amp;geo=361955307">World Gazetteer</a><br></font>]]></description><styleUrl>#p1m</styleUrl><Point><coordinates>-66.93,10.54,0</coordinates></Point></Placemark>

<Placemark><name>Jiulong</name><description><![CDATA[<font face="Tahoma">population: 1929557<br>division: China<br>reference: <a href="http://www.world-gazetteer.com/wg.php?men=gpro&amp;des=gamelan&amp;geo=404381417">World Gazetteer</a><br></font>]]></description><styleUrl>#p1m</styleUrl><Point><coordinates>114.17,22.32,0</coordinates></Point></Placemark>

<Placemark><name>Kumasi</name><description><![CDATA[<font face="Tahoma">population: 1928196<br>division: Ghana<br>reference: <a href="http://www.world-gazetteer.com/wg.php?men=gpro&amp;des=gamelan&amp;geo=348101837">World Gazetteer</a><br></font>]]></description><styleUrl>#p1m</styleUrl><Point><coordinates>-1.63,6.69,0</coordinates></Point></Placemark>

<Placemark><name>Sapporo</name><description><![CDATA[<font face="Tahoma">population: 1925504<br>division: Japan<br>reference: <a href="http://www.world-gazetteer.com/wg.php?men=gpro&amp;des=gamelan&amp;geo=479048134">World Gazetteer</a><br></font>]]></description><styleUrl>#p1m</styleUrl><Point><coordinates>141.34,43.06,0</coordinates></Point></Placemark>

<Placemark><name>Hangzhou</name><description><![CDATA[<font face="Tahoma">population: 1920846<br>division: China<br>reference: <a href="http://www.world-gazetteer.com/wg.php?men=gpro&amp;des=gamelan&amp;geo=432930017">World Gazetteer</a><br></font>]]></description><styleUrl>#p1m</styleUrl><Point><coordinates>120.17,30.25,0</coordinates></Point></Placemark>

<Placemark><name>Bucharest</name><description><![CDATA[<font face="Tahoma">population: 1918256<br>division: Romania<br>reference: <a href="http://www.world-gazetteer.com/wg.php?men=gpro&amp;des=gamelan&amp;geo=484004610">World Gazetteer</a><br></font>]]></description><styleUrl>#p1m</styleUrl><Point><coordinates>26.1,44.44,0</coordinates></Point></Placemark>

<Placemark><name>al-Başrah</name><description><![CDATA[<font face="Tahoma">population: 1914205<br>division: Iraq<br>reference: <a href="http://www.world-gazetteer.com/wg.php?men=gpro&amp;des=gamelan&amp;geo=433930782">World Gazetteer</a><br></font>]]></description><styleUrl>#p1m</styleUrl><Point><coordinates>47.82,30.53,0</coordinates></Point></Placemark>

<Placemark><name>Curitiba</name><description><![CDATA[<font face="Tahoma">population: 1896743<br>division: Brazil<br>reference: <a href="http://www.world-gazetteer.com/wg.php?men=gpro&amp;des=gamelan&amp;geo=232501071">World Gazetteer</a><br></font>]]></description><styleUrl>#p1m</styleUrl><Point><coordinates>-49.29,-25.42,0</coordinates></Point></Placemark>

<Placemark><name>Patna</name><description><![CDATA[<font face="Tahoma">population: 1875572<br>division: India<br>reference: <a href="http://www.world-gazetteer.com/wg.php?men=gpro&amp;des=gamelan&amp;geo=416258513">World Gazetteer</a><br></font>]]></description><styleUrl>#p1m</styleUrl><Point><coordinates>85.13,25.62,0</coordinates></Point></Placemark>

<Placemark><name>Manaus</name><description><![CDATA[<font face="Tahoma">population: 1865277<br>division: Brazil<br>reference: <a href="http://www.world-gazetteer.com/wg.php?men=gpro&amp;des=gamelan&amp;geo=312779998">World Gazetteer</a><br></font>]]></description><styleUrl>#p1m</styleUrl><Point><coordinates>-60.02,-3.12,0</coordinates></Point></Placemark>

<Placemark><name>Indore</name><description><![CDATA[<font face="Tahoma">population: 1854930<br>division: India<br>reference: <a href="http://www.world-gazetteer.com/wg.php?men=gpro&amp;des=gamelan&amp;geo=405817586">World Gazetteer</a><br></font>]]></description><styleUrl>#p1m</styleUrl><Point><coordinates>75.86,22.72,0</coordinates></Point></Placemark>

<Placemark><name>Valencia</name><description><![CDATA[<font face="Tahoma">population: 1853117<br>division: Venezuela<br>reference: <a href="http://www.world-gazetteer.com/wg.php?men=gpro&amp;des=gamelan&amp;geo=360839202">World Gazetteer</a><br></font>]]></description><styleUrl>#p1m</styleUrl><Point><coordinates>-67.98,10.23,0</coordinates></Point></Placemark>

<Placemark><name>Damascus</name><description><![CDATA[<font face="Tahoma">population: 1834741<br>division: Syria<br>reference: <a href="http://www.world-gazetteer.com/wg.php?men=gpro&amp;des=gamelan&amp;geo=444621632">World Gazetteer</a><br></font>]]></description><styleUrl>#p1m</styleUrl><Point><coordinates>36.32,33.5,0</coordinates></Point></Placemark>

<Placemark><name>Brisbane</name><description><![CDATA[<font face="Tahoma">population: 1825914<br>division: Australia<br>reference: <a href="http://www.world-gazetteer.com/wg.php?men=gpro&amp;des=gamelan&amp;geo=225177302">World Gazetteer</a><br></font>]]></description><styleUrl>#p1m</styleUrl><Point><coordinates>153.02,-27.46,0</coordinates></Point></Placemark>

<Placemark><name>Rabat</name><description><![CDATA[<font face="Tahoma">population: 1819812<br>division: Morocco<br>reference: <a href="http://www.world-gazetteer.com/wg.php?men=gpro&amp;des=gamelan&amp;geo=446489316">World Gazetteer</a><br></font>]]></description><styleUrl>#p1m</styleUrl><Point><coordinates>-6.84,34.02,0</coordinates></Point></Placemark>

<Placemark><name>Yaoundé</name><description><![CDATA[<font face="Tahoma">population: 1812169<br>division: Cameroon<br>reference: <a href="http://www.world-gazetteer.com/wg.php?men=gpro&amp;des=gamelan&amp;geo=337951152">World Gazetteer</a><br></font>]]></description><styleUrl>#p1m</styleUrl><Point><coordinates>11.52,3.87,0</coordinates></Point></Placemark>

<Placemark><name>Thāna</name><description><![CDATA[<font face="Tahoma">population: 1807616<br>division: India<br>reference: <a href="http://www.world-gazetteer.com/wg.php?men=gpro&amp;des=gamelan&amp;geo=393145297">World Gazetteer</a><br></font>]]></description><styleUrl>#p1m</styleUrl><Point><coordinates>72.97,19.2,0</coordinates></Point></Placemark>

<Placemark><name>Soweto</name><description><![CDATA[<font face="Tahoma">population: 1801772<br>division: South Africa<br>reference: <a href="http://www.world-gazetteer.com/wg.php?men=gpro&amp;des=gamelan&amp;geo=229412784">World Gazetteer</a><br></font>]]></description><styleUrl>#p1m</styleUrl><Point><coordinates>27.84,-26.28,0</coordinates></Point></Placemark>

<Placemark><name>Bamako</name><description><![CDATA[<font face="Tahoma">population: 1793730<br>division: Mali<br>reference: <a href="http://www.world-gazetteer.com/wg.php?men=gpro&amp;des=gamelan&amp;geo=369557201">World Gazetteer</a><br></font>]]></description><styleUrl>#p1m</styleUrl><Point><coordinates>-7.99,12.65,0</coordinates></Point></Placemark>

<Placemark><name>Bhopāl</name><description><![CDATA[<font face="Tahoma">population: 1792203<br>division: India<br>reference: <a href="http://www.world-gazetteer.com/wg.php?men=gpro&amp;des=gamelan&amp;geo=407689740">World Gazetteer</a><br></font>]]></description><styleUrl>#p1m</styleUrl><Point><coordinates>77.4,23.24,0</coordinates></Point></Placemark>

<Placemark><name>Hamburg</name><description><![CDATA[<font face="Tahoma">population: 1774688<br>division: Germany<br>reference: <a href="http://www.world-gazetteer.com/wg.php?men=gpro&amp;des=gamelan&amp;geo=516799000">World Gazetteer</a><br></font>]]></description><styleUrl>#p1m</styleUrl><Point><coordinates>10,53.55,0</coordinates></Point></Placemark>

<Placemark><name>Bekasi</name><description><![CDATA[<font face="Tahoma">population: 1774340<br>division: Indonesia<br>reference: <a href="http://www.world-gazetteer.com/wg.php?men=gpro&amp;des=gamelan&amp;geo=301636697">World Gazetteer</a><br></font>]]></description><styleUrl>#p1m</styleUrl><Point><coordinates>106.97,-6.22,0</coordinates></Point></Placemark>

<Placemark><name>Medan</name><description><![CDATA[<font face="Tahoma">population: 1769741<br>division: Indonesia<br>reference: <a href="http://www.world-gazetteer.com/wg.php?men=gpro&amp;des=gamelan&amp;geo=336951867">World Gazetteer</a><br></font>]]></description><styleUrl>#p1m</styleUrl><Point><coordinates>98.67,3.59,0</coordinates></Point></Placemark>

<Placemark><name>Minsk</name><description><![CDATA[<font face="Tahoma">population: 1763899<br>division: Belarus<br>reference: <a href="http://www.world-gazetteer.com/wg.php?men=gpro&amp;des=gamelan&amp;geo=518096755">World Gazetteer</a><br></font>]]></description><styleUrl>#p1m</styleUrl><Point><coordinates>27.55,53.91,0</coordinates></Point></Placemark>

<Placemark><name>Ludhiāna</name><description><![CDATA[<font face="Tahoma">population: 1740247<br>division: India<br>reference: <a href="http://www.world-gazetteer.com/wg.php?men=gpro&amp;des=gamelan&amp;geo=435301584">World Gazetteer</a><br></font>]]></description><styleUrl>#p1m</styleUrl><Point><coordinates>75.84,30.91,0</coordinates></Point></Placemark>

<Placemark><name>Qingdao</name><description><![CDATA[<font face="Tahoma">population: 1736114<br>division: China<br>reference: <a href="http://www.world-gazetteer.com/wg.php?men=gpro&amp;des=gamelan&amp;geo=453882032">World Gazetteer</a><br></font>]]></description><styleUrl>#p1m</styleUrl><Point><coordinates>120.32,36.07,0</coordinates></Point></Placemark>

<Placemark><name>Harare</name><description><![CDATA[<font face="Tahoma">population: 1725976<br>division: Zimbabwe<br>reference: <a href="http://www.world-gazetteer.com/wg.php?men=gpro&amp;des=gamelan&amp;geo=259869105">World Gazetteer</a><br></font>]]></description><styleUrl>#p1m</styleUrl><Point><coordinates>31.05,-17.82,0</coordinates></Point></Placemark>

<Placemark><name>Pretoria</name><description><![CDATA[<font face="Tahoma">population: 1724533<br>division: South Africa<br>reference: <a href="http://www.world-gazetteer.com/wg.php?men=gpro&amp;des=gamelan&amp;geo=231392822">World Gazetteer</a><br></font>]]></description><styleUrl>#p1m</styleUrl><Point><coordinates>28.22,-25.73,0</coordinates></Point></Placemark>

<Placemark><name>Warsaw</name><description><![CDATA[<font face="Tahoma">population: 1709578<br>division: Poland<br>reference: <a href="http://www.world-gazetteer.com/wg.php?men=gpro&amp;des=gamelan&amp;geo=512156102">World Gazetteer</a><br></font>]]></description><styleUrl>#p1m</styleUrl><Point><coordinates>21.02,52.26,0</coordinates></Point></Placemark>

<Placemark><name>Aleppo</name><description><![CDATA[<font face="Tahoma">population: 1707656<br>division: Syria<br>reference: <a href="http://www.world-gazetteer.com/wg.php?men=gpro&amp;des=gamelan&amp;geo=454449717">World Gazetteer</a><br></font>]]></description><styleUrl>#p1m</styleUrl><Point><coordinates>37.17,36.23,0</coordinates></Point></Placemark>

<Placemark><name>Vienna</name><description><![CDATA[<font face="Tahoma">population: 1704864<br>division: Austria<br>reference: <a href="http://www.world-gazetteer.com/wg.php?men=gpro&amp;des=gamelan&amp;geo=497611637">World Gazetteer</a><br></font>]]></description><styleUrl>#p1m</styleUrl><Point><coordinates>16.37,48.22,0</coordinates></Point></Placemark>

<Placemark><name>Eşfahān</name><description><![CDATA[<font face="Tahoma">population: 1698484<br>division: Iran<br>reference: <a href="http://www.world-gazetteer.com/wg.php?men=gpro&amp;des=gamelan&amp;geo=441671168">World Gazetteer</a><br></font>]]></description><styleUrl>#p1m</styleUrl><Point><coordinates>51.68,32.68,0</coordinates></Point></Placemark>

<Placemark><name>Antananarivo</name><description><![CDATA[<font face="Tahoma">population: 1687748<br>division: Madagascar<br>reference: <a href="http://www.world-gazetteer.com/wg.php?men=gpro&amp;des=gamelan&amp;geo=256018751">World Gazetteer</a><br></font>]]></description><styleUrl>#p1m</styleUrl><Point><coordinates>47.51,-18.89,0</coordinates></Point></Placemark>

<Placemark><name>Āgra</name><description><![CDATA[<font face="Tahoma">population: 1686976<br>division: India<br>reference: <a href="http://www.world-gazetteer.com/wg.php?men=gpro&amp;des=gamelan&amp;geo=421909801">World Gazetteer</a><br></font>]]></description><styleUrl>#p1m</styleUrl><Point><coordinates>78.01,27.19,0</coordinates></Point></Placemark>

<Placemark><name>Santa Cruz</name><description><![CDATA[<font face="Tahoma">population: 1685884<br>division: Bolivia<br>reference: <a href="http://www.world-gazetteer.com/wg.php?men=gpro&amp;des=gamelan&amp;geo=260039679">World Gazetteer</a><br></font>]]></description><styleUrl>#p1m</styleUrl><Point><coordinates>-63.21,-17.77,0</coordinates></Point></Placemark>

<Placemark><name>Tijuana</name><description><![CDATA[<font face="Tahoma">population: 1659872<br>division: Mexico<br>reference: <a href="http://www.world-gazetteer.com/wg.php?men=gpro&amp;des=gamelan&amp;geo=441114298">World Gazetteer</a><br></font>]]></description><styleUrl>#p1m</styleUrl><Point><coordinates>-117.02,32.53,0</coordinates></Point></Placemark>

<Placemark><name>Barcelona</name><description><![CDATA[<font face="Tahoma">population: 1653416<br>division: Spain<br>reference: <a href="http://www.world-gazetteer.com/wg.php?men=gpro&amp;des=gamelan&amp;geo=473058217">World Gazetteer</a><br></font>]]></description><styleUrl>#p1m</styleUrl><Point><coordinates>2.17,41.4,0</coordinates></Point></Placemark>

<Placemark><name>Quito</name><description><![CDATA[<font face="Tahoma">population: 1650034<br>division: Ecuador<br>reference: <a href="http://www.world-gazetteer.com/wg.php?men=gpro&amp;des=gamelan&amp;geo=323326150">World Gazetteer</a><br></font>]]></description><styleUrl>#p1m</styleUrl><Point><coordinates>-78.5,-0.19,0</coordinates></Point></Placemark>

<Placemark><name>Budapest</name><description><![CDATA[<font face="Tahoma">population: 1645091<br>division: Hungary<br>reference: <a href="http://www.world-gazetteer.com/wg.php?men=gpro&amp;des=gamelan&amp;geo=495055908">World Gazetteer</a><br></font>]]></description><styleUrl>#p1m</styleUrl><Point><coordinates>19.08,47.51,0</coordinates></Point></Placemark>

<Placemark><name>Pimpri</name><description><![CDATA[<font face="Tahoma">population: 1637905<br>division: India<br>reference: <a href="http://www.world-gazetteer.com/wg.php?men=gpro&amp;des=gamelan&amp;geo=391057380">World Gazetteer</a><br></font>]]></description><styleUrl>#p1m</styleUrl><Point><coordinates>73.8,18.62,0</coordinates></Point></Placemark>

<Placemark><name>Phoenix</name><description><![CDATA[<font face="Tahoma">population: 1635783<br>division: United States of America<br>reference: <a href="http://www.world-gazetteer.com/wg.php?men=gpro&amp;des=gamelan&amp;geo=444750793">World Gazetteer</a><br></font>]]></description><styleUrl>#p1m</styleUrl><Point><coordinates>-112.07,33.54,0</coordinates></Point></Placemark>

<Placemark><name>Juárez</name><description><![CDATA[<font face="Tahoma">population: 1633189<br>division: Mexico<br>reference: <a href="http://www.world-gazetteer.com/wg.php?men=gpro&amp;des=gamelan&amp;geo=438271351">World Gazetteer</a><br></font>]]></description><styleUrl>#p1m</styleUrl><Point><coordinates>-106.49,31.74,0</coordinates></Point></Placemark>

<Placemark><name>Lubumbashi</name><description><![CDATA[<font face="Tahoma">population: 1630186<br>division: Congo (Dem. Rep.)<br>reference: <a href="http://www.world-gazetteer.com/wg.php?men=gpro&amp;des=gamelan&amp;geo=282044748">World Gazetteer</a><br></font>]]></description><styleUrl>#p1m</styleUrl><Point><coordinates>27.48,-11.66,0</coordinates></Point></Placemark>

<Placemark><name>Urumqi</name><description><![CDATA[<font face="Tahoma">population: 1628533<br>division: China<br>reference: <a href="http://www.world-gazetteer.com/wg.php?men=gpro&amp;des=gamelan&amp;geo=481706758">World Gazetteer</a><br></font>]]></description><styleUrl>#p1m</styleUrl><Point><coordinates>87.58,43.8,0</coordinates></Point></Placemark>

<Placemark><name>Lomé</name><description><![CDATA[<font face="Tahoma">population: 1628431<br>division: Togo<br>reference: <a href="http://www.world-gazetteer.com/wg.php?men=gpro&amp;des=gamelan&amp;geo=346230135">World Gazetteer</a><br></font>]]></description><styleUrl>#p1m</styleUrl><Point><coordinates>1.35,6.17,0</coordinates></Point></Placemark>

<Placemark><name>Tangshan</name><description><![CDATA[<font face="Tahoma">population: 1627819<br>division: China<br>reference: <a href="http://www.world-gazetteer.com/wg.php?men=gpro&amp;des=gamelan&amp;geo=466661819">World Gazetteer</a><br></font>]]></description><styleUrl>#p1m</styleUrl><Point><coordinates>118.19,39.62,0</coordinates></Point></Placemark>

<Placemark><name>Davao</name><description><![CDATA[<font face="Tahoma">population: 1626977<br>division: Philippines<br>reference: <a href="http://www.world-gazetteer.com/wg.php?men=gpro&amp;des=gamelan&amp;geo=349626563">World Gazetteer</a><br></font>]]></description><styleUrl>#p1m</styleUrl><Point><coordinates>125.63,7.11,0</coordinates></Point></Placemark>

<Placemark><name>Dubai</name><description><![CDATA[<font face="Tahoma">population: 1616430<br>division: United Arab Emirates<br>reference: <a href="http://www.world-gazetteer.com/wg.php?men=gpro&amp;des=gamelan&amp;geo=414995533">World Gazetteer</a><br></font>]]></description><styleUrl>#p1m</styleUrl><Point><coordinates>55.33,25.27,0</coordinates></Point></Placemark>

<Placemark><name>Koyang</name><description><![CDATA[<font face="Tahoma">population: 1615892<br>division: Korea (South)<br>reference: <a href="http://www.world-gazetteer.com/wg.php?men=gpro&amp;des=gamelan&amp;geo=459750693">World Gazetteer</a><br></font>]]></description><styleUrl>#p1m</styleUrl><Point><coordinates>126.93,37.7,0</coordinates></Point></Placemark>

<Placemark><name>Suzhou</name><description><![CDATA[<font face="Tahoma">population: 1606518<br>division: China<br>reference: <a href="http://www.world-gazetteer.com/wg.php?men=gpro&amp;des=gamelan&amp;geo=436710062">World Gazetteer</a><br></font>]]></description><styleUrl>#p1m</styleUrl><Point><coordinates>120.62,31.3,0</coordinates></Point></Placemark>

<Placemark><name>Multān</name><description><![CDATA[<font face="Tahoma">population: 1606481<br>division: Pakistan<br>reference: <a href="http://www.world-gazetteer.com/wg.php?men=gpro&amp;des=gamelan&amp;geo=432745145">World Gazetteer</a><br></font>]]></description><styleUrl>#p1m</styleUrl><Point><coordinates>71.45,30.2,0</coordinates></Point></Placemark>

<Placemark><name>Aba</name><description><![CDATA[<font face="Tahoma">population: 1597296<br>division: Nigeria<br>reference: <a href="http://www.world-gazetteer.com/wg.php?men=gpro&amp;des=gamelan&amp;geo=342378735">World Gazetteer</a><br></font>]]></description><styleUrl>#p1m</styleUrl><Point><coordinates>7.35,5.1,0</coordinates></Point></Placemark>

<Placemark><name>Guadalajara</name><description><![CDATA[<font face="Tahoma">population: 1593093<br>division: Mexico<br>reference: <a href="http://www.world-gazetteer.com/wg.php?men=gpro&amp;des=gamelan&amp;geo=398419665">World Gazetteer</a><br></font>]]></description><styleUrl>#p1m</styleUrl><Point><coordinates>-103.35,20.67,0</coordinates></Point></Placemark>

<Placemark><name>Rongcheng</name><description><![CDATA[<font face="Tahoma">population: 1586793<br>division: China<br>reference: <a href="http://www.world-gazetteer.com/wg.php?men=gpro&amp;des=gamelan&amp;geo=408773634">World Gazetteer</a><br></font>]]></description><styleUrl>#p1m</styleUrl><Point><coordinates>116.34,23.54,0</coordinates></Point></Placemark>

<Placemark><name>Nāshik</name><description><![CDATA[<font face="Tahoma">population: 1585444<br>division: India<br>reference: <a href="http://www.world-gazetteer.com/wg.php?men=gpro&amp;des=gamelan&amp;geo=396061378">World Gazetteer</a><br></font>]]></description><styleUrl>#p1m</styleUrl><Point><coordinates>73.78,20.01,0</coordinates></Point></Placemark>

<Placemark><name>Belém</name><description><![CDATA[<font face="Tahoma">population: 1584848<br>division: Brazil<br>reference: <a href="http://www.world-gazetteer.com/wg.php?men=gpro&amp;des=gamelan&amp;geo=318829150">World Gazetteer</a><br></font>]]></description><styleUrl>#p1m</styleUrl><Point><coordinates>-48.5,-1.44,0</coordinates></Point></Placemark>

<Placemark><name>Muqdisho</name><description><![CDATA[<font face="Tahoma">population: 1579041<br>division: Somalia<br>reference: <a href="http://www.world-gazetteer.com/wg.php?men=gpro&amp;des=gamelan&amp;geo=331402533">World Gazetteer</a><br></font>]]></description><styleUrl>#p1m</styleUrl><Point><coordinates>45.33,2.05,0</coordinates></Point></Placemark>

<Placemark><name>Hyderabad</name><description><![CDATA[<font face="Tahoma">population: 1578367<br>division: Pakistan<br>reference: <a href="http://www.world-gazetteer.com/wg.php?men=gpro&amp;des=gamelan&amp;geo=415392837">World Gazetteer</a><br></font>]]></description><styleUrl>#p1m</styleUrl><Point><coordinates>68.37,25.38,0</coordinates></Point></Placemark>

<Placemark><name>Bandung</name><description><![CDATA[<font face="Tahoma">population: 1573267<br>division: Indonesia<br>reference: <a href="http://www.world-gazetteer.com/wg.php?men=gpro&amp;des=gamelan&amp;geo=299152760">World Gazetteer</a><br></font>]]></description><styleUrl>#p1m</styleUrl><Point><coordinates>107.6,-6.91,0</coordinates></Point></Placemark>

<Placemark><name>Gujrānwāla</name><description><![CDATA[<font face="Tahoma">population: 1569090<br>division: Pakistan<br>reference: <a href="http://www.world-gazetteer.com/wg.php?men=gpro&amp;des=gamelan&amp;geo=439801418">World Gazetteer</a><br></font>]]></description><styleUrl>#p1m</styleUrl><Point><coordinates>74.18,32.16,0</coordinates></Point></Placemark>

<Placemark><name>Bursa</name><description><![CDATA[<font face="Tahoma">population: 1567756<br>division: Turkey<br>reference: <a href="http://www.world-gazetteer.com/wg.php?men=gpro&amp;des=gamelan&amp;geo=468740908">World Gazetteer</a><br></font>]]></description><styleUrl>#p1m</styleUrl><Point><coordinates>29.08,40.2,0</coordinates></Point></Placemark>

<Placemark><name>Karaj</name><description><![CDATA[<font face="Tahoma">population: 1562293<br>division: Iran<br>reference: <a href="http://www.world-gazetteer.com/wg.php?men=gpro&amp;des=gamelan&amp;geo=452903097">World Gazetteer</a><br></font>]]></description><styleUrl>#p1m</styleUrl><Point><coordinates>50.97,35.8,0</coordinates></Point></Placemark>

<Placemark><name>Mbuji-Mayi</name><description><![CDATA[<font face="Tahoma">population: 1559073<br>division: Congo (Dem. Rep.)<br>reference: <a href="http://www.world-gazetteer.com/wg.php?men=gpro&amp;des=gamelan&amp;geo=301952359">World Gazetteer</a><br></font>]]></description><styleUrl>#p1m</styleUrl><Point><coordinates>23.59,-6.13,0</coordinates></Point></Placemark>

<Placemark><name>Recife</name><description><![CDATA[<font face="Tahoma">population: 1556657<br>division: Brazil<br>reference: <a href="http://www.world-gazetteer.com/wg.php?men=gpro&amp;des=gamelan&amp;geo=294926508">World Gazetteer</a><br></font>]]></description><styleUrl>#p1m</styleUrl><Point><coordinates>-34.92,-8.08,0</coordinates></Point></Placemark>

<Placemark><name>Subang Jaya</name><description><![CDATA[<font face="Tahoma">population: 1553589<br>division: Malaysia<br>reference: <a href="http://www.world-gazetteer.com/wg.php?men=gpro&amp;des=gamelan&amp;geo=335368153">World Gazetteer</a><br></font>]]></description><styleUrl>#p1m</styleUrl><Point><coordinates>101.53,3.15,0</coordinates></Point></Placemark>

<Placemark><name>Kōbe</name><description><![CDATA[<font face="Tahoma">population: 1550406<br>division: Japan<br>reference: <a href="http://www.world-gazetteer.com/wg.php?men=gpro&amp;des=gamelan&amp;geo=448879517">World Gazetteer</a><br></font>]]></description><styleUrl>#p1m</styleUrl><Point><coordinates>135.17,34.68,0</coordinates></Point></Placemark>

<Placemark><name>Vadodara</name><description><![CDATA[<font face="Tahoma">population: 1539428<br>division: India<br>reference: <a href="http://www.world-gazetteer.com/wg.php?men=gpro&amp;des=gamelan&amp;geo=404341318">World Gazetteer</a><br></font>]]></description><styleUrl>#p1m</styleUrl><Point><coordinates>73.18,22.31,0</coordinates></Point></Placemark>

<Placemark><name>Gāoxióng</name><description><![CDATA[<font face="Tahoma">population: 1529405<br>division: Taiwan<br>reference: <a href="http://www.world-gazetteer.com/wg.php?men=gpro&amp;des=gamelan&amp;geo=405498027">World Gazetteer</a><br></font>]]></description><styleUrl>#p1m</styleUrl><Point><coordinates>120.27,22.63,0</coordinates></Point></Placemark>

<Placemark><name>Córdoba</name><description><![CDATA[<font face="Tahoma">population: 1526607<br>division: Argentina<br>reference: <a href="http://www.world-gazetteer.com/wg.php?men=gpro&amp;des=gamelan&amp;geo=210971581">World Gazetteer</a><br></font>]]></description><styleUrl>#p1m</styleUrl><Point><coordinates>-64.19,-31.4,0</coordinates></Point></Placemark>

<Placemark><name>Tangerang</name><description><![CDATA[<font face="Tahoma">population: 1524035<br>division: Indonesia<br>reference: <a href="http://www.world-gazetteer.com/wg.php?men=gpro&amp;des=gamelan&amp;geo=301780663">World Gazetteer</a><br></font>]]></description><styleUrl>#p1m</styleUrl><Point><coordinates>106.63,-6.18,0</coordinates></Point></Placemark>

<Placemark><name>Farīdābad</name><description><![CDATA[<font face="Tahoma">population: 1521605<br>division: India<br>reference: <a href="http://www.world-gazetteer.com/wg.php?men=gpro&amp;des=gamelan&amp;geo=426193730">World Gazetteer</a><br></font>]]></description><styleUrl>#p1m</styleUrl><Point><coordinates>77.3,28.38,0</coordinates></Point></Placemark>

<Placemark><name>Kampala</name><description><![CDATA[<font face="Tahoma">population: 1514301<br>division: Uganda<br>reference: <a href="http://www.world-gazetteer.com/wg.php?men=gpro&amp;des=gamelan&amp;geo=325173258">World Gazetteer</a><br></font>]]></description><styleUrl>#p1m</styleUrl><Point><coordinates>32.58,0.32,0</coordinates></Point></Placemark>

<Placemark><name>Puebla</name><description><![CDATA[<font face="Tahoma">population: 1506849<br>division: Mexico<br>reference: <a href="http://www.world-gazetteer.com/wg.php?men=gpro&amp;des=gamelan&amp;geo=392588178">World Gazetteer</a><br></font>]]></description><styleUrl>#p1m</styleUrl><Point><coordinates>-98.22,19.05,0</coordinates></Point></Placemark>

<Placemark><name>Depok</name><description><![CDATA[<font face="Tahoma">population: 1506797<br>division: Indonesia<br>reference: <a href="http://www.world-gazetteer.com/wg.php?men=gpro&amp;des=gamelan&amp;geo=301024683">World Gazetteer</a><br></font>]]></description><styleUrl>#p1m</styleUrl><Point><coordinates>106.83,-6.39,0</coordinates></Point></Placemark>

<Placemark><name>Ghāziābād</name><description><![CDATA[<font face="Tahoma">population: 1505958<br>division: India<br>reference: <a href="http://www.world-gazetteer.com/wg.php?men=gpro&amp;des=gamelan&amp;geo=427201741">World Gazetteer</a><br></font>]]></description><styleUrl>#p1m</styleUrl><Point><coordinates>77.41,28.66,0</coordinates></Point></Placemark>

<Placemark><name>Shantou</name><description><![CDATA[<font face="Tahoma">population: 1493452<br>division: China<br>reference: <a href="http://www.world-gazetteer.com/wg.php?men=gpro&amp;des=gamelan&amp;geo=408161667">World Gazetteer</a><br></font>]]></description><styleUrl>#p1m</styleUrl><Point><coordinates>116.67,23.37,0</coordinates></Point></Placemark>

<Placemark><name>Hà Nội</name><description><![CDATA[<font face="Tahoma">population: 1491221<br>division: Vietnam<br>reference: <a href="http://www.world-gazetteer.com/wg.php?men=gpro&amp;des=gamelan&amp;geo=399736584">World Gazetteer</a><br></font>]]></description><styleUrl>#p1m</styleUrl><Point><coordinates>105.84,21.03,0</coordinates></Point></Placemark>

<Placemark><name>Adana</name><description><![CDATA[<font face="Tahoma">population: 1491066<br>division: Turkey<br>reference: <a href="http://www.world-gazetteer.com/wg.php?men=gpro&amp;des=gamelan&amp;geo=457221532">World Gazetteer</a><br></font>]]></description><styleUrl>#p1m</styleUrl><Point><coordinates>35.32,37,0</coordinates></Point></Placemark>

<Placemark><name>Nārāyanganj</name><description><![CDATA[<font face="Tahoma">population: 1490131<br>division: Bangladesh<br>reference: <a href="http://www.world-gazetteer.com/wg.php?men=gpro&amp;des=gamelan&amp;geo=409059050">World Gazetteer</a><br></font>]]></description><styleUrl>#p1m</styleUrl><Point><coordinates>90.5,23.62,0</coordinates></Point></Placemark>

<Placemark><name>Phnum Pénh</name><description><![CDATA[<font face="Tahoma">population: 1485661<br>division: Cambodia<br>reference: <a href="http://www.world-gazetteer.com/wg.php?men=gpro&amp;des=gamelan&amp;geo=365680492">World Gazetteer</a><br></font>]]></description><styleUrl>#p1m</styleUrl><Point><coordinates>104.92,11.57,0</coordinates></Point></Placemark>

<Placemark><name>Mecca</name><description><![CDATA[<font face="Tahoma">population: 1484858<br>division: Saudi Arabia<br>reference: <a href="http://www.world-gazetteer.com/wg.php?men=gpro&amp;des=gamelan&amp;geo=401169982">World Gazetteer</a><br></font>]]></description><styleUrl>#p1m</styleUrl><Point><coordinates>39.82,21.43,0</coordinates></Point></Placemark>

<Placemark><name>Makasar</name><description><![CDATA[<font face="Tahoma">population: 1478713<br>division: Indonesia<br>reference: <a href="http://www.world-gazetteer.com/wg.php?men=gpro&amp;des=gamelan&amp;geo=305525941">World Gazetteer</a><br></font>]]></description><styleUrl>#p1m</styleUrl><Point><coordinates>119.41,-5.14,0</coordinates></Point></Placemark>

<Placemark><name>Kuala Lumpur</name><description><![CDATA[<font face="Tahoma">population: 1475337<br>division: Malaysia<br>reference: <a href="http://www.world-gazetteer.com/wg.php?men=gpro&amp;des=gamelan&amp;geo=335404171">World Gazetteer</a><br></font>]]></description><styleUrl>#p1m</styleUrl><Point><coordinates>101.71,3.16,0</coordinates></Point></Placemark>

<Placemark><name>Kyōto</name><description><![CDATA[<font face="Tahoma">population: 1466957<br>division: Japan<br>reference: <a href="http://www.world-gazetteer.com/wg.php?men=gpro&amp;des=gamelan&amp;geo=450067575">World Gazetteer</a><br></font>]]></description><styleUrl>#p1m</styleUrl><Point><coordinates>135.75,35.01,0</coordinates></Point></Placemark>

<Placemark><name>Mandalay</name><description><![CDATA[<font face="Tahoma">population: 1464863<br>division: Myanmar<br>reference: <a href="http://www.world-gazetteer.com/wg.php?men=gpro&amp;des=gamelan&amp;geo=403155609">World Gazetteer</a><br></font>]]></description><styleUrl>#p1m</styleUrl><Point><coordinates>96.09,21.98,0</coordinates></Point></Placemark>

<Placemark><name>Kharkiv</name><description><![CDATA[<font face="Tahoma">population: 1459908<br>division: Ukraine<br>reference: <a href="http://www.world-gazetteer.com/wg.php?men=gpro&amp;des=gamelan&amp;geo=503949622">World Gazetteer</a><br></font>]]></description><styleUrl>#p1m</styleUrl><Point><coordinates>36.22,49.98,0</coordinates></Point></Placemark>

<Placemark><name>Fukuoka</name><description><![CDATA[<font face="Tahoma">population: 1457176<br>division: Japan<br>reference: <a href="http://www.world-gazetteer.com/wg.php?men=gpro&amp;des=gamelan&amp;geo=444955041">World Gazetteer</a><br></font>]]></description><styleUrl>#p1m</styleUrl><Point><coordinates>130.41,33.59,0</coordinates></Point></Placemark>

<Placemark><name>Rājkot</name><description><![CDATA[<font face="Tahoma">population: 1456181<br>division: India<br>reference: <a href="http://www.world-gazetteer.com/wg.php?men=gpro&amp;des=gamelan&amp;geo=404341079">World Gazetteer</a><br></font>]]></description><styleUrl>#p1m</styleUrl><Point><coordinates>70.79,22.31,0</coordinates></Point></Placemark>

<Placemark><name>Lusaka</name><description><![CDATA[<font face="Tahoma">population: 1451145<br>division: Zambia<br>reference: <a href="http://www.world-gazetteer.com/wg.php?men=gpro&amp;des=gamelan&amp;geo=268508829">World Gazetteer</a><br></font>]]></description><styleUrl>#p1m</styleUrl><Point><coordinates>28.29,-15.42,0</coordinates></Point></Placemark>

<Placemark><name>Lanzhou</name><description><![CDATA[<font face="Tahoma">population: 1449972<br>division: China<br>reference: <a href="http://www.world-gazetteer.com/wg.php?men=gpro&amp;des=gamelan&amp;geo=453808368">World Gazetteer</a><br></font>]]></description><styleUrl>#p1m</styleUrl><Point><coordinates>103.68,36.05,0</coordinates></Point></Placemark>

<Placemark><name>Hefei</name><description><![CDATA[<font face="Tahoma">population: 1447370<br>division: China<br>reference: <a href="http://www.world-gazetteer.com/wg.php?men=gpro&amp;des=gamelan&amp;geo=438689728">World Gazetteer</a><br></font>]]></description><styleUrl>#p1m</styleUrl><Point><coordinates>117.28,31.85,0</coordinates></Point></Placemark>

<Placemark><name>Philadelphia</name><description><![CDATA[<font face="Tahoma">population: 1445993<br>division: United States of America<br>reference: <a href="http://www.world-gazetteer.com/wg.php?men=gpro&amp;des=gamelan&amp;geo=468046487">World Gazetteer</a><br></font>]]></description><styleUrl>#p1m</styleUrl><Point><coordinates>-75.13,40.01,0</coordinates></Point></Placemark>

<Placemark><name>Taejŏn</name><description><![CDATA[<font face="Tahoma">population: 1445640<br>division: Korea (South)<br>reference: <a href="http://www.world-gazetteer.com/wg.php?men=gpro&amp;des=gamelan&amp;geo=454818743">World Gazetteer</a><br></font>]]></description><styleUrl>#p1m</styleUrl><Point><coordinates>127.43,36.33,0</coordinates></Point></Placemark>

<Placemark><name>Peshāwar</name><description><![CDATA[<font face="Tahoma">population: 1439205<br>division: Pakistan<br>reference: <a href="http://www.world-gazetteer.com/wg.php?men=gpro&amp;des=gamelan&amp;geo=446461154">World Gazetteer</a><br></font>]]></description><styleUrl>#p1m</styleUrl><Point><coordinates>71.54,34.01,0</coordinates></Point></Placemark>

<Placemark><name>Tabrīz</name><description><![CDATA[<font face="Tahoma">population: 1435961<br>division: Iran<br>reference: <a href="http://www.world-gazetteer.com/wg.php?men=gpro&amp;des=gamelan&amp;geo=461110630">World Gazetteer</a><br></font>]]></description><styleUrl>#p1m</styleUrl><Point><coordinates>46.3,38.08,0</coordinates></Point></Placemark>

<Placemark><name>Khulnā</name><description><![CDATA[<font face="Tahoma">population: 1435422<br>division: Bangladesh<br>reference: <a href="http://www.world-gazetteer.com/wg.php?men=gpro&amp;des=gamelan&amp;geo=406250956">World Gazetteer</a><br></font>]]></description><styleUrl>#p1m</styleUrl><Point><coordinates>89.56,22.84,0</coordinates></Point></Placemark>

<Placemark><name>Porto Alegre</name><description><![CDATA[<font face="Tahoma">population: 1428859<br>division: Brazil<br>reference: <a href="http://www.world-gazetteer.com/wg.php?men=gpro&amp;des=gamelan&amp;geo=215868878">World Gazetteer</a><br></font>]]></description><styleUrl>#p1m</styleUrl><Point><coordinates>-51.22,-30.04,0</coordinates></Point></Placemark>

<Placemark><name>Suwŏn</name><description><![CDATA[<font face="Tahoma">population: 1419548<br>division: Korea (South)<br>reference: <a href="http://www.world-gazetteer.com/wg.php?men=gpro&amp;des=gamelan&amp;geo=458166701">World Gazetteer</a><br></font>]]></description><styleUrl>#p1m</styleUrl><Point><coordinates>127.01,37.26,0</coordinates></Point></Placemark>

<Placemark><name>Fushun</name><description><![CDATA[<font face="Tahoma">population: 1417054<br>division: China<br>reference: <a href="http://www.world-gazetteer.com/wg.php?men=gpro&amp;des=gamelan&amp;geo=474762388">World Gazetteer</a><br></font>]]></description><styleUrl>#p1m</styleUrl><Point><coordinates>123.88,41.87,0</coordinates></Point></Placemark>

<Placemark><name>Ouagadougou</name><description><![CDATA[<font face="Tahoma">population: 1411869<br>division: Burkina Faso<br>reference: <a href="http://www.world-gazetteer.com/wg.php?men=gpro&amp;des=gamelan&amp;geo=368549847">World Gazetteer</a><br></font>]]></description><styleUrl>#p1m</styleUrl><Point><coordinates>-1.53,12.37,0</coordinates></Point></Placemark>

<Placemark><name>Mīrat</name><description><![CDATA[<font face="Tahoma">population: 1404723<br>division: India<br>reference: <a href="http://www.world-gazetteer.com/wg.php?men=gpro&amp;des=gamelan&amp;geo=428389770">World Gazetteer</a><br></font>]]></description><styleUrl>#p1m</styleUrl><Point><coordinates>77.7,28.99,0</coordinates></Point></Placemark>

<Placemark><name>San Antonio</name><description><![CDATA[<font face="Tahoma">population: 1402013<br>division: United States of America<br>reference: <a href="http://www.world-gazetteer.com/wg.php?men=gpro&amp;des=gamelan&amp;geo=430064149">World Gazetteer</a><br></font>]]></description><styleUrl>#p1m</styleUrl><Point><coordinates>-98.51,29.46,0</coordinates></Point></Placemark>

<Placemark><name>Kawasaki</name><description><![CDATA[<font face="Tahoma">population: 1391257<br>division: Japan<br>reference: <a href="http://www.world-gazetteer.com/wg.php?men=gpro&amp;des=gamelan&amp;geo=451939970">World Gazetteer</a><br></font>]]></description><styleUrl>#p1m</styleUrl><Point><coordinates>139.7,35.53,0</coordinates></Point></Placemark>

<Placemark><name>Luoyang</name><description><![CDATA[<font face="Tahoma">population: 1391054<br>division: China<br>reference: <a href="http://www.world-gazetteer.com/wg.php?men=gpro&amp;des=gamelan&amp;geo=448877247">World Gazetteer</a><br></font>]]></description><styleUrl>#p1m</styleUrl><Point><coordinates>112.47,34.68,0</coordinates></Point></Placemark>

<Placemark><name>Gaziantep</name><description><![CDATA[<font face="Tahoma">population: 1388004<br>division: Turkey<br>reference: <a href="http://www.world-gazetteer.com/wg.php?men=gpro&amp;des=gamelan&amp;geo=457473739">World Gazetteer</a><br></font>]]></description><styleUrl>#p1m</styleUrl><Point><coordinates>37.39,37.07,0</coordinates></Point></Placemark>

<Placemark><name>Handan</name><description><![CDATA[<font face="Tahoma">population: 1384575<br>division: China<br>reference: <a href="http://www.world-gazetteer.com/wg.php?men=gpro&amp;des=gamelan&amp;geo=455717448">World Gazetteer</a><br></font>]]></description><styleUrl>#p1m</styleUrl><Point><coordinates>114.48,36.58,0</coordinates></Point></Placemark>

<Placemark><name>Almaty</name><description><![CDATA[<font face="Tahoma">population: 1372660<br>division: Kazakhstan<br>reference: <a href="http://www.world-gazetteer.com/wg.php?men=gpro&amp;des=gamelan&amp;geo=479977692">World Gazetteer</a><br></font>]]></description><styleUrl>#p1m</styleUrl><Point><coordinates>76.92,43.32,0</coordinates></Point></Placemark>

<Placemark><name>Novosibirsk</name><description><![CDATA[<font face="Tahoma">population: 1372332<br>division: Russia<br>reference: <a href="http://www.world-gazetteer.com/wg.php?men=gpro&amp;des=gamelan&amp;geo=522170293">World Gazetteer</a><br></font>]]></description><styleUrl>#p1m</styleUrl><Point><coordinates>82.93,55.04,0</coordinates></Point></Placemark>

<Placemark><name>Shenzhen</name><description><![CDATA[<font face="Tahoma">population: 1370396<br>division: China<br>reference: <a href="http://www.world-gazetteer.com/wg.php?men=gpro&amp;des=gamelan&amp;geo=405137413">World Gazetteer</a><br></font>]]></description><styleUrl>#p1m</styleUrl><Point><coordinates>114.13,22.53,0</coordinates></Point></Placemark>

<Placemark><name>Guarulhos</name><description><![CDATA[<font face="Tahoma">population: 1365041<br>division: Brazil<br>reference: <a href="http://www.world-gazetteer.com/wg.php?men=gpro&amp;des=gamelan&amp;geo=239557351">World Gazetteer</a><br></font>]]></description><styleUrl>#p1m</styleUrl><Point><coordinates>-46.49,-23.46,0</coordinates></Point></Placemark>

<Placemark><name>Kwangju</name><description><![CDATA[<font face="Tahoma">population: 1364560<br>division: Korea (South)<br>reference: <a href="http://www.world-gazetteer.com/wg.php?men=gpro&amp;des=gamelan&amp;geo=450606691">World Gazetteer</a><br></font>]]></description><styleUrl>#p1m</styleUrl><Point><coordinates>126.91,35.16,0</coordinates></Point></Placemark>

<Placemark><name>Baotou</name><description><![CDATA[<font face="Tahoma">population: 1363141<br>division: China<br>reference: <a href="http://www.world-gazetteer.com/wg.php?men=gpro&amp;des=gamelan&amp;geo=470189005">World Gazetteer</a><br></font>]]></description><styleUrl>#p1m</styleUrl><Point><coordinates>110.05,40.6,0</coordinates></Point></Placemark>

<Placemark><name>Abuja</name><description><![CDATA[<font face="Tahoma">population: 1352679<br>division: Nigeria<br>reference: <a href="http://www.world-gazetteer.com/wg.php?men=gpro&amp;des=gamelan&amp;geo=356634749">World Gazetteer</a><br></font>]]></description><styleUrl>#p1m</styleUrl><Point><coordinates>7.49,9.06,0</coordinates></Point></Placemark>

<Placemark><name>Kalyān</name><description><![CDATA[<font face="Tahoma">population: 1342842<br>division: India<br>reference: <a href="http://www.world-gazetteer.com/wg.php?men=gpro&amp;des=gamelan&amp;geo=393325316">World Gazetteer</a><br></font>]]></description><styleUrl>#p1m</styleUrl><Point><coordinates>73.16,19.25,0</coordinates></Point></Placemark>

<Placemark><name>Munich</name><description><![CDATA[<font face="Tahoma">population: 1342339<br>division: Germany<br>reference: <a href="http://www.world-gazetteer.com/wg.php?men=gpro&amp;des=gamelan&amp;geo=497323158">World Gazetteer</a><br></font>]]></description><styleUrl>#p1m</styleUrl><Point><coordinates>11.58,48.14,0</coordinates></Point></Placemark>

<Placemark><name>Xuzhou</name><description><![CDATA[<font face="Tahoma">population: 1336626<br>division: China<br>reference: <a href="http://www.world-gazetteer.com/wg.php?men=gpro&amp;des=gamelan&amp;geo=447401718">World Gazetteer</a><br></font>]]></description><styleUrl>#p1m</styleUrl><Point><coordinates>117.18,34.27,0</coordinates></Point></Placemark>

<Placemark><name>Montevideo</name><description><![CDATA[<font face="Tahoma">population: 1328606<br>division: Uruguay<br>reference: <a href="http://www.world-gazetteer.com/wg.php?men=gpro&amp;des=gamelan&amp;geo=198480383">World Gazetteer</a><br></font>]]></description><styleUrl>#p1m</styleUrl><Point><coordinates>-56.17,-34.87,0</coordinates></Point></Placemark>

<Placemark><name>Milan</name><description><![CDATA[<font face="Tahoma">population: 1326571<br>division: Italy<br>reference: <a href="http://www.world-gazetteer.com/wg.php?men=gpro&amp;des=gamelan&amp;geo=487746919">World Gazetteer</a><br></font>]]></description><styleUrl>#p1m</styleUrl><Point><coordinates>9.19,45.48,0</coordinates></Point></Placemark>

<Placemark><name>Perth</name><description><![CDATA[<font face="Tahoma">population: 1317965<br>division: Australia<br>reference: <a href="http://www.world-gazetteer.com/wg.php?men=gpro&amp;des=gamelan&amp;geo=208973584">World Gazetteer</a><br></font>]]></description><styleUrl>#p1m</styleUrl><Point><coordinates>115.84,-31.96,0</coordinates></Point></Placemark>

<Placemark><name>San Diego</name><description><![CDATA[<font face="Tahoma">population: 1309749<br>division: United States of America<br>reference: <a href="http://www.world-gazetteer.com/wg.php?men=gpro&amp;des=gamelan&amp;geo=442122286">World Gazetteer</a><br></font>]]></description><styleUrl>#p1m</styleUrl><Point><coordinates>-117.14,32.81,0</coordinates></Point></Placemark>

<Placemark><name>Xianggangdao</name><description><![CDATA[<font face="Tahoma">population: 1309560<br>division: China<br>reference: <a href="http://www.world-gazetteer.com/wg.php?men=gpro&amp;des=gamelan&amp;geo=404201414">World Gazetteer</a><br></font>]]></description><styleUrl>#p1m</styleUrl><Point><coordinates>114.14,22.27,0</coordinates></Point></Placemark>

<Placemark><name>Dallas</name><description><![CDATA[<font face="Tahoma">population: 1304930<br>division: United States of America<br>reference: <a href="http://www.world-gazetteer.com/wg.php?men=gpro&amp;des=gamelan&amp;geo=442052323">World Gazetteer</a><br></font>]]></description><styleUrl>#p1m</styleUrl><Point><coordinates>-96.77,32.79,0</coordinates></Point></Placemark>

<Placemark><name>Yekaterinburg</name><description><![CDATA[<font face="Tahoma">population: 1301977<br>division: Russia<br>reference: <a href="http://www.world-gazetteer.com/wg.php?men=gpro&amp;des=gamelan&amp;geo=528684060">World Gazetteer</a><br></font>]]></description><styleUrl>#p1m</styleUrl><Point><coordinates>60.6,56.85,0</coordinates></Point></Placemark>

<Placemark><name>Irbīl</name><description><![CDATA[<font face="Tahoma">population: 1293820<br>division: Iraq<br>reference: <a href="http://www.world-gazetteer.com/wg.php?men=gpro&amp;des=gamelan&amp;geo=454270401">World Gazetteer</a><br></font>]]></description><styleUrl>#p1m</styleUrl><Point><coordinates>44.01,36.18,0</coordinates></Point></Placemark>

<Placemark><name>Goiânia</name><description><![CDATA[<font face="Tahoma">population: 1284209<br>division: Brazil<br>reference: <a href="http://www.world-gazetteer.com/wg.php?men=gpro&amp;des=gamelan&amp;geo=263821074">World Gazetteer</a><br></font>]]></description><styleUrl>#p1m</styleUrl><Point><coordinates>-49.26,-16.72,0</coordinates></Point></Placemark>

<Placemark><name>Semarang</name><description><![CDATA[<font face="Tahoma">population: 1284110<br>division: Indonesia<br>reference: <a href="http://www.world-gazetteer.com/wg.php?men=gpro&amp;des=gamelan&amp;geo=298937042">World Gazetteer</a><br></font>]]></description><styleUrl>#p1m</styleUrl><Point><coordinates>110.42,-6.97,0</coordinates></Point></Placemark>

<Placemark><name>Stockholm</name><description><![CDATA[<font face="Tahoma">population: 1279658<br>division: Sweden<br>reference: <a href="http://www.world-gazetteer.com/wg.php?men=gpro&amp;des=gamelan&amp;geo=537607807">World Gazetteer</a><br></font>]]></description><styleUrl>#p1m</styleUrl><Point><coordinates>18.07,59.33,0</coordinates></Point></Placemark>

<Placemark><name>Palembang</name><description><![CDATA[<font face="Tahoma">population: 1276034<br>division: Indonesia<br>reference: <a href="http://www.world-gazetteer.com/wg.php?men=gpro&amp;des=gamelan&amp;geo=313264475">World Gazetteer</a><br></font>]]></description><styleUrl>#p1m</styleUrl><Point><coordinates>104.75,-2.99,0</coordinates></Point></Placemark>

<Placemark><name>Navi Mumbai</name><description><![CDATA[<font face="Tahoma">population: 1268784<br>division: India<br>reference: <a href="http://www.world-gazetteer.com/wg.php?men=gpro&amp;des=gamelan&amp;geo=392821306">World Gazetteer</a><br></font>]]></description><styleUrl>#p1m</styleUrl><Point><coordinates>73.06,19.11,0</coordinates></Point></Placemark>

<Placemark><name>Fuzhou</name><description><![CDATA[<font face="Tahoma">population: 1265124<br>division: China<br>reference: <a href="http://www.world-gazetteer.com/wg.php?men=gpro&amp;des=gamelan&amp;geo=417917930">World Gazetteer</a><br></font>]]></description><styleUrl>#p1m</styleUrl><Point><coordinates>119.3,26.08,0</coordinates></Point></Placemark>

<Placemark><name>Huainan</name><description><![CDATA[<font face="Tahoma">population: 1264768<br>division: China<br>reference: <a href="http://www.world-gazetteer.com/wg.php?men=gpro&amp;des=gamelan&amp;geo=441497698">World Gazetteer</a><br></font>]]></description><styleUrl>#p1m</styleUrl><Point><coordinates>116.98,32.63,0</coordinates></Point></Placemark>

<Placemark><name>Shīrāz</name><description><![CDATA[<font face="Tahoma">population: 1260730<br>division: Iran<br>reference: <a href="http://www.world-gazetteer.com/wg.php?men=gpro&amp;des=gamelan&amp;geo=430691257">World Gazetteer</a><br></font>]]></description><styleUrl>#p1m</styleUrl><Point><coordinates>52.57,29.63,0</coordinates></Point></Placemark>

<Placemark><name>Nizhniy Novgorod</name><description><![CDATA[<font face="Tahoma">population: 1256488<br>division: Russia<br>reference: <a href="http://www.world-gazetteer.com/wg.php?men=gpro&amp;des=gamelan&amp;geo=526810400">World Gazetteer</a><br></font>]]></description><styleUrl>#p1m</styleUrl><Point><coordinates>44,56.33,0</coordinates></Point></Placemark>

<Placemark><name>Brazzaville</name><description><![CDATA[<font face="Tahoma">population: 1252974<br>division: Congo<br>reference: <a href="http://www.world-gazetteer.com/wg.php?men=gpro&amp;des=gamelan&amp;geo=308719526">World Gazetteer</a><br></font>]]></description><styleUrl>#p1m</styleUrl><Point><coordinates>15.26,-4.25,0</coordinates></Point></Placemark>

<Placemark><name>Wuxi</name><description><![CDATA[<font face="Tahoma">population: 1243036<br>division: China<br>reference: <a href="http://www.world-gazetteer.com/wg.php?men=gpro&amp;des=gamelan&amp;geo=437718030">World Gazetteer</a><br></font>]]></description><styleUrl>#p1m</styleUrl><Point><coordinates>120.3,31.58,0</coordinates></Point></Placemark>

<Placemark><name>Saitama</name><description><![CDATA[<font face="Tahoma">population: 1240618<br>division: Japan<br>reference: <a href="http://www.world-gazetteer.com/wg.php?men=gpro&amp;des=gamelan&amp;geo=453163964">World Gazetteer</a><br></font>]]></description><styleUrl>#p1m</styleUrl><Point><coordinates>139.64,35.87,0</coordinates></Point></Placemark>

<Placemark><name>Rosario</name><description><![CDATA[<font face="Tahoma">population: 1240557<br>division: Argentina<br>reference: <a href="http://www.world-gazetteer.com/wg.php?men=gpro&amp;des=gamelan&amp;geo=205427933">World Gazetteer</a><br></font>]]></description><styleUrl>#p1m</styleUrl><Point><coordinates>-60.67,-32.94,0</coordinates></Point></Placemark>

<Placemark><name>Amritsar</name><description><![CDATA[<font face="Tahoma">population: 1224616<br>division: India<br>reference: <a href="http://www.world-gazetteer.com/wg.php?men=gpro&amp;des=gamelan&amp;geo=437929487">World Gazetteer</a><br></font>]]></description><styleUrl>#p1m</styleUrl><Point><coordinates>74.87,31.64,0</coordinates></Point></Placemark>

<Placemark><name>León</name><description><![CDATA[<font face="Tahoma">population: 1222239<br>division: Mexico<br>reference: <a href="http://www.world-gazetteer.com/wg.php?men=gpro&amp;des=gamelan&amp;geo=400039831">World Gazetteer</a><br></font>]]></description><styleUrl>#p1m</styleUrl><Point><coordinates>-101.69,21.12,0</coordinates></Point></Placemark>

<Placemark><name>Vārānasī</name><description><![CDATA[<font face="Tahoma">population: 1211891<br>division: India<br>reference: <a href="http://www.world-gazetteer.com/wg.php?men=gpro&amp;des=gamelan&amp;geo=415178301">World Gazetteer</a><br></font>]]></description><styleUrl>#p1m</styleUrl><Point><coordinates>83.01,25.32,0</coordinates></Point></Placemark>

<Placemark><name>Nezahualcóyotl</name><description><![CDATA[<font face="Tahoma">population: 1210821<br>division: Mexico<br>reference: <a href="http://www.world-gazetteer.com/wg.php?men=gpro&amp;des=gamelan&amp;geo=393884097">World Gazetteer</a><br></font>]]></description><styleUrl>#p1m</styleUrl><Point><coordinates>-99.03,19.41,0</coordinates></Point></Placemark>

<Placemark><name>Aurangābād</name><description><![CDATA[<font face="Tahoma">population: 1208285<br>division: India<br>reference: <a href="http://www.world-gazetteer.com/wg.php?men=gpro&amp;des=gamelan&amp;geo=395629532">World Gazetteer</a><br></font>]]></description><styleUrl>#p1m</styleUrl><Point><coordinates>75.32,19.89,0</coordinates></Point></Placemark>

<Placemark><name>'Ammān</name><description><![CDATA[<font face="Tahoma">population: 1206266<br>division: Jordan<br>reference: <a href="http://www.world-gazetteer.com/wg.php?men=gpro&amp;des=gamelan&amp;geo=439041593">World Gazetteer</a><br></font>]]></description><styleUrl>#p1m</styleUrl><Point><coordinates>35.93,31.95,0</coordinates></Point></Placemark>

<Placemark><name>Guiyang</name><description><![CDATA[<font face="Tahoma">population: 1203454<br>division: China<br>reference: <a href="http://www.world-gazetteer.com/wg.php?men=gpro&amp;des=gamelan&amp;geo=419716672">World Gazetteer</a><br></font>]]></description><styleUrl>#p1m</styleUrl><Point><coordinates>106.72,26.58,0</coordinates></Point></Placemark>

<Placemark><name>Baku</name><description><![CDATA[<font face="Tahoma">population: 1202258<br>division: Azerbaijan<br>reference: <a href="http://www.world-gazetteer.com/wg.php?men=gpro&amp;des=gamelan&amp;geo=469426986">World Gazetteer</a><br></font>]]></description><styleUrl>#p1m</styleUrl><Point><coordinates>49.86,40.39,0</coordinates></Point></Placemark>